[{"stop_id":"1001002-04","stop_code":"","stop_name":"佐賀駅バスセンター 4番のりば","stop_desc":"","stop_lat":"33.26442","stop_lon":"130.29926","zone_id":"1001002-04","stop_url":"","location_type":"0","parent_station":"1001002","stop_timezone":"","wheelchair_boarding":""},{"stop_id":"1001405-01","stop_code":"","stop_name":"エスプラッツ前（臨）","stop_desc":"","stop_lat":"33.254694","stop_lon":"130.302298","zone_id":"1001405-01","stop_url":"","location_type":"0","parent_station":"1001405","stop_timezone":"","wheelchair_boarding":""},{"stop_id":"1001406-01","stop_code":"","stop_name":"佐賀市歴史民俗館・呉服元町（臨）","stop_desc":"","stop_lat":"33.253604","stop_lon":"130.305655","zone_id":"1001406-01","stop_url":"","location_type":"0","parent_station":"1001406","stop_timezone":"","wheelchair_boarding":""},{"stop_id":"1001408-01","stop_code":"","stop_name":"大隈重信記念館入口（臨）","stop_desc":"","stop_lat":"33.24826","stop_lon":"130.30678","zone_id":"1001408-01","stop_url":"","location_type":"0","parent_station":"1001408","stop_timezone":"","wheelchair_boarding":""},{"stop_id":"1001409-01","stop_code":"","stop_name":"佐賀城本丸歴史館（臨）","stop_desc":"","stop_lat":"33.24658","stop_lon":"130.3026","zone_id":"1001409-01","stop_url":"","location_type":"0","parent_station":"1001409","stop_timezone":"","wheelchair_boarding":""},{"stop_id":"1001410-01","stop_code":"","stop_name":"徴古館前（臨）","stop_desc":"","stop_lat":"33.250981","stop_lon":"130.30148","zone_id":"1001410-01","stop_url":"","location_type":"0","parent_station":"1001410","stop_timezone":"","wheelchair_boarding":""},{"stop_id":"1001411-01","stop_code":"","stop_name":"バルーンミュージアム前（臨）","stop_desc":"","stop_lat":"33.252437","stop_lon":"130.300021","zone_id":"1001411-01","stop_url":"","location_type":"0","parent_station":"1001411","stop_timezone":"","wheelchair_boarding":""},{"stop_id":"1001412-01","stop_code":"","stop_name":"玉屋前・中の小路（臨）","stop_desc":"","stop_lat":"33.253916","stop_lon":"130.299836","zone_id":"1001412-01","stop_url":"","location_type":"0","parent_station":"1001412","stop_timezone":"","wheelchair_boarding":""},{"stop_id":"1001414-01","stop_code":"","stop_name":"唐人町（臨）(1)","stop_desc":"","stop_lat":"33.259111","stop_lon":"130.298902","zone_id":"1001414-01","stop_url":"","location_type":"0","parent_station":"1001414","stop_timezone":"","wheelchair_boarding":""},{"stop_id":"1001002-09","stop_code":"","stop_name":"佐賀駅バスセンター 9番のりば","stop_desc":"","stop_lat":"33.264663","stop_lon":"130.299455","zone_id":"1001002-09","stop_url":"","location_type":"0","parent_station":"1001002","stop_timezone":"","wheelchair_boarding":""},{"stop_id":"1001002-01","stop_code":"","stop_name":"佐賀駅バスセンター 1番のりば","stop_desc":"","stop_lat":"33.26451","stop_lon":"130.29974","zone_id":"1001002-01","stop_url":"","location_type":"0","parent_station":"1001002","stop_timezone":"","wheelchair_boarding":""},{"stop_id":"1005023-20","stop_code":"","stop_name":"佐賀学園北(2)","stop_desc":"","stop_lat":"33.2677","stop_lon":"130.30051","zone_id":"1005023-20","stop_url":"","location_type":"0","parent_station":"1005023","stop_timezone":"","wheelchair_boarding":""},{"stop_id":"1005024-20","stop_code":"","stop_name":"夢咲公園(2)","stop_desc":"","stop_lat":"33.26845","stop_lon":"130.30363","zone_id":"1005024-20","stop_url":"","location_type":"0","parent_station":"1005024","stop_timezone":"","wheelchair_boarding":""},{"stop_id":"1005025-20","stop_code":"","stop_name":"ほほえみ館前(2)","stop_desc":"","stop_lat":"33.26884","stop_lon":"130.30504","zone_id":"1005025-20","stop_url":"","location_type":"0","parent_station":"1005025","stop_timezone":"","wheelchair_boarding":""},{"stop_id":"1005026-20","stop_code":"","stop_name":"夢咲コスモスタウン南(2)","stop_desc":"","stop_lat":"33.269448","stop_lon":"130.30813","zone_id":"1005026-20","stop_url":"","location_type":"0","parent_station":"1005026","stop_timezone":"","wheelchair_boarding":""},{"stop_id":"1005027-20","stop_code":"","stop_name":"夢咲コスモスタウン(2)","stop_desc":"","stop_lat":"33.27144","stop_lon":"130.30849","zone_id":"1005027-20","stop_url":"","location_type":"0","parent_station":"1005027","stop_timezone":"","wheelchair_boarding":""},{"stop_id":"1005028-20","stop_code":"","stop_name":"夢咲コスモスタウン北(2)","stop_desc":"","stop_lat":"33.2734","stop_lon":"130.308","zone_id":"1005028-20","stop_url":"","location_type":"0","parent_station":"1005028","stop_timezone":"","wheelchair_boarding":""},{"stop_id":"1005031-00","stop_code":"","stop_name":"ゆめタウン佐賀","stop_desc":"","stop_lat":"33.27497","stop_lon":"130.30783","zone_id":"1005031-00","stop_url":"","location_type":"0","parent_station":"1005031","stop_timezone":"","wheelchair_boarding":""},{"stop_id":"1005028-10","stop_code":"","stop_name":"夢咲コスモスタウン北(1)","stop_desc":"","stop_lat":"33.27335","stop_lon":"130.30812","zone_id":"1005028-10","stop_url":"","location_type":"0","parent_station":"1005028","stop_timezone":"","wheelchair_boarding":""},{"stop_id":"1005027-10","stop_code":"","stop_name":"夢咲コスモスタウン(1)","stop_desc":"","stop_lat":"33.27088","stop_lon":"130.30873","zone_id":"1005027-10","stop_url":"","location_type":"0","parent_station":"1005027","stop_timezone":"","wheelchair_boarding":""},{"stop_id":"1005026-10","stop_code":"","stop_name":"夢咲コスモスタウン南(1)","stop_desc":"","stop_lat":"33.26914","stop_lon":"130.30754","zone_id":"1005026-10","stop_url":"","location_type":"0","parent_station":"1005026","stop_timezone":"","wheelchair_boarding":""},{"stop_id":"1005025-10","stop_code":"","stop_name":"ほほえみ館前(1)","stop_desc":"","stop_lat":"33.26872","stop_lon":"130.30528","zone_id":"1005025-10","stop_url":"","location_type":"0","parent_station":"1005025","stop_timezone":"","wheelchair_boarding":""},{"stop_id":"1005024-10","stop_code":"","stop_name":"夢咲公園(1)","stop_desc":"","stop_lat":"33.26836","stop_lon":"130.30351","zone_id":"1005024-10","stop_url":"","location_type":"0","parent_station":"1005024","stop_timezone":"","wheelchair_boarding":""},{"stop_id":"1005023-10","stop_code":"","stop_name":"佐賀学園北(1)","stop_desc":"","stop_lat":"33.26755","stop_lon":"130.30011","zone_id":"1005023-10","stop_url":"","location_type":"0","parent_station":"1005023","stop_timezone":"","wheelchair_boarding":""},{"stop_id":"1005029-20","stop_code":"","stop_name":"佐賀清和学園前(2)","stop_desc":"","stop_lat":"33.27059","stop_lon":"130.31064","zone_id":"1005029-20","stop_url":"","location_type":"0","parent_station":"1005029","stop_timezone":"","wheelchair_boarding":""},{"stop_id":"1005030-20","stop_code":"","stop_name":"ぽかぽか温泉前(2)","stop_desc":"","stop_lat":"33.27265","stop_lon":"130.31079","zone_id":"1005030-20","stop_url":"","location_type":"0","parent_station":"1005030","stop_timezone":"","wheelchair_boarding":""},{"stop_id":"1005030-10","stop_code":"","stop_name":"ぽかぽか温泉前(1)","stop_desc":"","stop_lat":"33.27275","stop_lon":"130.31064","zone_id":"1005030-10","stop_url":"","location_type":"0","parent_station":"1005030","stop_timezone":"","wheelchair_boarding":""},{"stop_id":"1005029-10","stop_code":"","stop_name":"佐賀清和学園前(1)","stop_desc":"","stop_lat":"33.27034","stop_lon":"130.3105","zone_id":"1005029-10","stop_url":"","location_type":"0","parent_station":"1005029","stop_timezone":"","wheelchair_boarding":""},{"stop_id":"1001002-03","stop_code":"","stop_name":"佐賀駅バスセンター 3番のりば","stop_desc":"","stop_lat":"33.26443","stop_lon":"130.29936","zone_id":"1001002-03","stop_url":"","location_type":"0","parent_station":"1001002","stop_timezone":"","wheelchair_boarding":""},{"stop_id":"1002003-10","stop_code":"","stop_name":"市役所前(1)","stop_desc":"","stop_lat":"33.263755","stop_lon":"130.300205","zone_id":"1002003-10","stop_url":"","location_type":"0","parent_station":"1002003","stop_timezone":"","wheelchair_boarding":""},{"stop_id":"1002004-20","stop_code":"","stop_name":"駅南本町(2)","stop_desc":"","stop_lat":"33.261857","stop_lon":"130.298712","zone_id":"1002004-20","stop_url":"","location_type":"0","parent_station":"1002004","stop_timezone":"","wheelchair_boarding":""},{"stop_id":"1002005-20","stop_code":"","stop_name":"唐人町(2)","stop_desc":"","stop_lat":"33.25875","stop_lon":"130.299111","zone_id":"1002005-20","stop_url":"","location_type":"0","parent_station":"1002005","stop_timezone":"","wheelchair_boarding":""},{"stop_id":"1002006-20","stop_code":"","stop_name":"白山(2)","stop_desc":"","stop_lat":"33.255358","stop_lon":"130.299751","zone_id":"1002006-20","stop_url":"","location_type":"0","parent_station":"1002006","stop_timezone":"","wheelchair_boarding":""},{"stop_id":"1002007-20","stop_code":"","stop_name":"中の小路(2)","stop_desc":"","stop_lat":"33.254056","stop_lon":"130.299978","zone_id":"1002007-20","stop_url":"","location_type":"0","parent_station":"1002007","stop_timezone":"","wheelchair_boarding":""},{"stop_id":"1002008-20","stop_code":"","stop_name":"県庁前(2)","stop_desc":"","stop_lat":"33.251526","stop_lon":"130.30029","zone_id":"1002008-20","stop_url":"","location_type":"0","parent_station":"1002008","stop_timezone":"","wheelchair_boarding":""},{"stop_id":"1006032-20","stop_code":"","stop_name":"県庁舎(2)","stop_desc":"","stop_lat":"33.2484","stop_lon":"130.30063","zone_id":"1006032-20","stop_url":"","location_type":"0","parent_station":"1006032","stop_timezone":"","wheelchair_boarding":""},{"stop_id":"1006033-20","stop_code":"","stop_name":"サガテレビ前(2)","stop_desc":"","stop_lat":"33.24727","stop_lon":"130.30084","zone_id":"1006033-20","stop_url":"","location_type":"0","parent_station":"1006033","stop_timezone":"","wheelchair_boarding":""},{"stop_id":"1006034-00","stop_code":"","stop_name":"佐賀城跡","stop_desc":"","stop_lat":"33.2467","stop_lon":"130.30214","zone_id":"1006034-00","stop_url":"","location_type":"0","parent_station":"1006034","stop_timezone":"","wheelchair_boarding":""},{"stop_id":"1030219-02","stop_code":"","stop_name":"堀江通(2)","stop_desc":"","stop_lat":"33.26412","stop_lon":"130.29416","zone_id":"1030219-02","stop_url":"","location_type":"0","parent_station":"1030219","stop_timezone":"","wheelchair_boarding":""},{"stop_id":"1024168-02","stop_code":"","stop_name":"どんどんどんの森東(2)","stop_desc":"","stop_lat":"33.2628","stop_lon":"130.2935","zone_id":"1024168-02","stop_url":"","location_type":"0","parent_station":"1024168","stop_timezone":"","wheelchair_boarding":""},{"stop_id":"1058324-20","stop_code":"","stop_name":"どんどんどんの森前(2)","stop_desc":"","stop_lat":"33.25914","stop_lon":"130.29182","zone_id":"1058324-20","stop_url":"","location_type":"0","parent_station":"1058324","stop_timezone":"","wheelchair_boarding":""},{"stop_id":"1058325-20","stop_code":"","stop_name":"多布施(2)","stop_desc":"","stop_lat":"33.25898","stop_lon":"130.29041","zone_id":"1058325-20","stop_url":"","location_type":"0","parent_station":"1058325","stop_timezone":"","wheelchair_boarding":""},{"stop_id":"1058326-20","stop_code":"","stop_name":"多布施橋(2)","stop_desc":"","stop_lat":"33.25855","stop_lon":"130.28633","zone_id":"1058326-20","stop_url":"","location_type":"0","parent_station":"1058326","stop_timezone":"","wheelchair_boarding":""},{"stop_id":"1058327-20","stop_code":"","stop_name":"佐賀工業高校前(2)","stop_desc":"","stop_lat":"33.2579","stop_lon":"130.28421","zone_id":"1058327-20","stop_url":"","location_type":"0","parent_station":"1058327","stop_timezone":"","wheelchair_boarding":""},{"stop_id":"1058328-20","stop_code":"","stop_name":"中折(2)","stop_desc":"","stop_lat":"33.25735","stop_lon":"130.2823","zone_id":"1058328-20","stop_url":"","location_type":"0","parent_station":"1058328","stop_timezone":"","wheelchair_boarding":""},{"stop_id":"1058329-20","stop_code":"","stop_name":"北高前(2)","stop_desc":"","stop_lat":"33.25642","stop_lon":"130.27798","zone_id":"1058329-20","stop_url":"","location_type":"0","parent_station":"1058329","stop_timezone":"","wheelchair_boarding":""},{"stop_id":"1058330-20","stop_code":"","stop_name":"新栄小前(2)","stop_desc":"","stop_lat":"33.25628","stop_lon":"130.27544","zone_id":"1058330-20","stop_url":"","location_type":"0","parent_station":"1058330","stop_timezone":"","wheelchair_boarding":""},{"stop_id":"1058331-20","stop_code":"","stop_name":"新栄小西(2)","stop_desc":"","stop_lat":"33.25608","stop_lon":"130.27116","zone_id":"1058331-20","stop_url":"","location_type":"0","parent_station":"1058331","stop_timezone":"","wheelchair_boarding":""},{"stop_id":"1058332-20","stop_code":"","stop_name":"鍋島駅南(2)","stop_desc":"","stop_lat":"33.25579","stop_lon":"130.26526","zone_id":"1058332-20","stop_url":"","location_type":"0","parent_station":"1058332","stop_timezone":"","wheelchair_boarding":""},{"stop_id":"1058333-20","stop_code":"","stop_name":"鍋島駅西(2)","stop_desc":"","stop_lat":"33.2617","stop_lon":"130.26306","zone_id":"1058333-20","stop_url":"","location_type":"0","parent_station":"1058333","stop_timezone":"","wheelchair_boarding":""},{"stop_id":"1058334-20","stop_code":"","stop_name":"江頭西(2)","stop_desc":"","stop_lat":"33.26419","stop_lon":"130.26262","zone_id":"1058334-20","stop_url":"","location_type":"0","parent_station":"1058334","stop_timezone":"","wheelchair_boarding":""},{"stop_id":"1058335-01","stop_code":"","stop_name":"市営江頭団地前(2)","stop_desc":"","stop_lat":"33.26491","stop_lon":"130.26099","zone_id":"1058335-01","stop_url":"","location_type":"0","parent_station":"1058335","stop_timezone":"","wheelchair_boarding":""},{"stop_id":"1058336-10","stop_code":"","stop_name":"クレオパーク鍋島北(1)","stop_desc":"","stop_lat":"33.26663","stop_lon":"130.25948","zone_id":"1058336-10","stop_url":"","location_type":"0","parent_station":"1058336","stop_timezone":"","wheelchair_boarding":""},{"stop_id":"1058337-10","stop_code":"","stop_name":"クレオパーク鍋島(1)","stop_desc":"","stop_lat":"33.26495","stop_lon":"130.25958","zone_id":"1058337-10","stop_url":"","location_type":"0","parent_station":"1058337","stop_timezone":"","wheelchair_boarding":""},{"stop_id":"1058335-00","stop_code":"","stop_name":"市営江頭団地前(1)","stop_desc":"","stop_lat":"33.2650488","stop_lon":"130.2615934","zone_id":"1058335-00","stop_url":"","location_type":"0","parent_station":"1058335","stop_timezone":"","wheelchair_boarding":""},{"stop_id":"1058334-10","stop_code":"","stop_name":"江頭西(1)","stop_desc":"","stop_lat":"33.26382","stop_lon":"130.26279","zone_id":"1058334-10","stop_url":"","location_type":"0","parent_station":"1058334","stop_timezone":"","wheelchair_boarding":""},{"stop_id":"1058333-10","stop_code":"","stop_name":"鍋島駅西(1)","stop_desc":"","stop_lat":"33.26146","stop_lon":"130.26323","zone_id":"1058333-10","stop_url":"","location_type":"0","parent_station":"1058333","stop_timezone":"","wheelchair_boarding":""},{"stop_id":"1058332-10","stop_code":"","stop_name":"鍋島駅南(1)","stop_desc":"","stop_lat":"33.25586","stop_lon":"130.26553","zone_id":"1058332-10","stop_url":"","location_type":"0","parent_station":"1058332","stop_timezone":"","wheelchair_boarding":""},{"stop_id":"1058331-10","stop_code":"","stop_name":"新栄小西(1)","stop_desc":"","stop_lat":"33.25609","stop_lon":"130.26994","zone_id":"1058331-10","stop_url":"","location_type":"0","parent_station":"1058331","stop_timezone":"","wheelchair_boarding":""},{"stop_id":"1058330-10","stop_code":"","stop_name":"新栄小前(1)","stop_desc":"","stop_lat":"33.2563","stop_lon":"130.27626","zone_id":"1058330-10","stop_url":"","location_type":"0","parent_station":"1058330","stop_timezone":"","wheelchair_boarding":""},{"stop_id":"1058329-10","stop_code":"","stop_name":"北高前(1)","stop_desc":"","stop_lat":"33.25665","stop_lon":"130.27917","zone_id":"1058329-10","stop_url":"","location_type":"0","parent_station":"1058329","stop_timezone":"","wheelchair_boarding":""},{"stop_id":"1058328-10","stop_code":"","stop_name":"中折(1)","stop_desc":"","stop_lat":"33.25737","stop_lon":"130.28227","zone_id":"1058328-10","stop_url":"","location_type":"0","parent_station":"1058328","stop_timezone":"","wheelchair_boarding":""},{"stop_id":"1058327-10","stop_code":"","stop_name":"佐賀工業高校前(1)","stop_desc":"","stop_lat":"33.25796","stop_lon":"130.28415","zone_id":"1058327-10","stop_url":"","location_type":"0","parent_station":"1058327","stop_timezone":"","wheelchair_boarding":""},{"stop_id":"1058326-10","stop_code":"","stop_name":"多布施橋(1)","stop_desc":"","stop_lat":"33.25856","stop_lon":"130.28625","zone_id":"1058326-10","stop_url":"","location_type":"0","parent_station":"1058326","stop_timezone":"","wheelchair_boarding":""},{"stop_id":"1058325-10","stop_code":"","stop_name":"多布施(1)","stop_desc":"","stop_lat":"33.25889","stop_lon":"130.28908","zone_id":"1058325-10","stop_url":"","location_type":"0","parent_station":"1058325","stop_timezone":"","wheelchair_boarding":""},{"stop_id":"1058324-10","stop_code":"","stop_name":"どんどんどんの森前(1)","stop_desc":"","stop_lat":"33.25909","stop_lon":"130.29076","zone_id":"1058324-10","stop_url":"","location_type":"0","parent_station":"1058324","stop_timezone":"","wheelchair_boarding":""},{"stop_id":"1024168-01","stop_code":"","stop_name":"どんどんどんの森東(1)","stop_desc":"","stop_lat":"33.26216","stop_lon":"130.29324","zone_id":"1024168-01","stop_url":"","location_type":"0","parent_station":"1024168","stop_timezone":"","wheelchair_boarding":""},{"stop_id":"1030219-04","stop_code":"","stop_name":"堀江通(4)","stop_desc":"","stop_lat":"33.26297","stop_lon":"130.29329","zone_id":"1030219-04","stop_url":"","location_type":"0","parent_station":"1030219","stop_timezone":"","wheelchair_boarding":""},{"stop_id":"1030218-03","stop_code":"","stop_name":"佐賀駅北口(3)","stop_desc":"","stop_lat":"33.26462","stop_lon":"130.295976","zone_id":"1030218-03","stop_url":"","location_type":"0","parent_station":"1030218","stop_timezone":"","wheelchair_boarding":""},{"stop_id":"1002008-10","stop_code":"","stop_name":"県庁前(1)","stop_desc":"","stop_lat":"33.251331","stop_lon":"130.300168","zone_id":"1002008-10","stop_url":"","location_type":"0","parent_station":"1002008","stop_timezone":"","wheelchair_boarding":""},{"stop_id":"1002007-10","stop_code":"","stop_name":"中の小路(1)","stop_desc":"","stop_lat":"33.253821","stop_lon":"130.299857","zone_id":"1002007-10","stop_url":"","location_type":"0","parent_station":"1002007","stop_timezone":"","wheelchair_boarding":""},{"stop_id":"1002006-10","stop_code":"","stop_name":"白山(1)","stop_desc":"","stop_lat":"33.254817","stop_lon":"130.299688","zone_id":"1002006-10","stop_url":"","location_type":"0","parent_station":"1002006","stop_timezone":"","wheelchair_boarding":""},{"stop_id":"1002005-10","stop_code":"","stop_name":"唐人町(1)","stop_desc":"","stop_lat":"33.259143","stop_lon":"130.298909","zone_id":"1002005-10","stop_url":"","location_type":"0","parent_station":"1002005","stop_timezone":"","wheelchair_boarding":""},{"stop_id":"1002004-10","stop_code":"","stop_name":"駅南本町(1)","stop_desc":"","stop_lat":"33.260865","stop_lon":"130.298501","zone_id":"1002004-10","stop_url":"","location_type":"0","parent_station":"1002004","stop_timezone":"","wheelchair_boarding":""},{"stop_id":"1002003-20","stop_code":"","stop_name":"市役所前(2)","stop_desc":"","stop_lat":"33.263645","stop_lon":"130.300045","zone_id":"1002003-20","stop_url":"","location_type":"0","parent_station":"1002003","stop_timezone":"","wheelchair_boarding":""},{"stop_id":"1002009-20","stop_code":"","stop_name":"佐嘉神社前(2)","stop_desc":"","stop_lat":"33.251064","stop_lon":"130.30207","zone_id":"1002009-20","stop_url":"","location_type":"0","parent_station":"1002009","stop_timezone":"","wheelchair_boarding":""},{"stop_id":"1003021-00","stop_code":"","stop_name":"佐賀女子短大・高校前","stop_desc":"","stop_lat":"33.24626","stop_lon":"130.28627","zone_id":"1003021-00","stop_url":"","location_type":"0","parent_station":"1003021","stop_timezone":"","wheelchair_boarding":""},{"stop_id":"1003020-10","stop_code":"","stop_name":"旭学園通り南(1)","stop_desc":"","stop_lat":"33.24424","stop_lon":"130.28656","zone_id":"1003020-10","stop_url":"","location_type":"0","parent_station":"1003020","stop_timezone":"","wheelchair_boarding":""},{"stop_id":"1003019-10","stop_code":"","stop_name":"佐賀大学西(1)","stop_desc":"","stop_lat":"33.24448","stop_lon":"130.28828","zone_id":"1003019-10","stop_url":"","location_type":"0","parent_station":"1003019","stop_timezone":"","wheelchair_boarding":""},{"stop_id":"1003018-01","stop_code":"","stop_name":"佐賀大学前(1)","stop_desc":"","stop_lat":"33.2456","stop_lon":"130.29308","zone_id":"1003018-01","stop_url":"","location_type":"0","parent_station":"1003018","stop_timezone":"","wheelchair_boarding":""},{"stop_id":"1003017-10","stop_code":"","stop_name":"与賀町(1)","stop_desc":"","stop_lat":"33.24912","stop_lon":"130.2925","zone_id":"1003017-10","stop_url":"","location_type":"0","parent_station":"1003017","stop_timezone":"","wheelchair_boarding":""},{"stop_id":"1003013-10","stop_code":"","stop_name":"辻の堂(1)","stop_desc":"","stop_lat":"33.250118","stop_lon":"130.293428","zone_id":"1003013-10","stop_url":"","location_type":"0","parent_station":"1003013","stop_timezone":"","wheelchair_boarding":""},{"stop_id":"1003012-00","stop_code":"","stop_name":"県警本部前","stop_desc":"","stop_lat":"33.250695","stop_lon":"130.298559","zone_id":"1003012-00","stop_url":"","location_type":"0","parent_station":"1003012","stop_timezone":"","wheelchair_boarding":""},{"stop_id":"1003011-00","stop_code":"","stop_name":"県庁前","stop_desc":"","stop_lat":"33.250532","stop_lon":"130.298565","zone_id":"1003011-00","stop_url":"","location_type":"0","parent_station":"1003011","stop_timezone":"","wheelchair_boarding":""},{"stop_id":"1003013-20","stop_code":"","stop_name":"辻の堂(2)","stop_desc":"","stop_lat":"33.250109","stop_lon":"130.294796","zone_id":"1003013-20","stop_url":"","location_type":"0","parent_station":"1003013","stop_timezone":"","wheelchair_boarding":""},{"stop_id":"1003017-20","stop_code":"","stop_name":"与賀町(2)","stop_desc":"","stop_lat":"33.2481","stop_lon":"130.29295","zone_id":"1003017-20","stop_url":"","location_type":"0","parent_station":"1003017","stop_timezone":"","wheelchair_boarding":""},{"stop_id":"1003018-03","stop_code":"","stop_name":"佐賀大学前(3)","stop_desc":"","stop_lat":"33.24476","stop_lon":"130.29268","zone_id":"1003018-03","stop_url":"","location_type":"0","parent_station":"1003018","stop_timezone":"","wheelchair_boarding":""},{"stop_id":"1003019-20","stop_code":"","stop_name":"佐賀大学西(2)","stop_desc":"","stop_lat":"33.24455","stop_lon":"130.28891","zone_id":"1003019-20","stop_url":"","location_type":"0","parent_station":"1003019","stop_timezone":"","wheelchair_boarding":""},{"stop_id":"1003020-20","stop_code":"","stop_name":"旭学園通り南(2)","stop_desc":"","stop_lat":"33.24419","stop_lon":"130.28682","zone_id":"1003020-20","stop_url":"","location_type":"0","parent_station":"1003020","stop_timezone":"","wheelchair_boarding":""},{"stop_id":"1006033-10","stop_code":"","stop_name":"サガテレビ前(1)","stop_desc":"","stop_lat":"33.24704","stop_lon":"130.3008","zone_id":"1006033-10","stop_url":"","location_type":"0","parent_station":"1006033","stop_timezone":"","wheelchair_boarding":""},{"stop_id":"1006032-10","stop_code":"","stop_name":"県庁舎(1)","stop_desc":"","stop_lat":"33.24837","stop_lon":"130.30051","zone_id":"1006032-10","stop_url":"","location_type":"0","parent_station":"1006032","stop_timezone":"","wheelchair_boarding":""},{"stop_id":"1001002-02","stop_code":"","stop_name":"佐賀駅バスセンター 2番のりば","stop_desc":"","stop_lat":"33.26445","stop_lon":"130.29951","zone_id":"1001002-02","stop_url":"","location_type":"0","parent_station":"1001002","stop_timezone":"","wheelchair_boarding":""},{"stop_id":"1032251-20","stop_code":"","stop_name":"藤木(2)","stop_desc":"","stop_lat":"33.27032","stop_lon":"130.30075","zone_id":"1032251-20","stop_url":"","location_type":"0","parent_station":"1032251","stop_timezone":"","wheelchair_boarding":""},{"stop_id":"1032252-20","stop_code":"","stop_name":"致遠館前(2)","stop_desc":"","stop_lat":"33.27206","stop_lon":"130.30034","zone_id":"1032252-20","stop_url":"","location_type":"0","parent_station":"1032252","stop_timezone":"","wheelchair_boarding":""},{"stop_id":"1032253-20","stop_code":"","stop_name":"佐賀北警察署前(2)","stop_desc":"","stop_lat":"33.27436","stop_lon":"130.29971","zone_id":"1032253-20","stop_url":"","location_type":"0","parent_station":"1032253","stop_timezone":"","wheelchair_boarding":""},{"stop_id":"1032254-20","stop_code":"","stop_name":"市文化会館東(2)","stop_desc":"","stop_lat":"33.27786","stop_lon":"130.29878","zone_id":"1032254-20","stop_url":"","location_type":"0","parent_station":"1032254","stop_timezone":"","wheelchair_boarding":""},{"stop_id":"1032255-00","stop_code":"","stop_name":"東高木","stop_desc":"","stop_lat":"33.28245","stop_lon":"130.2984","zone_id":"1032255-00","stop_url":"","location_type":"0","parent_station":"1032255","stop_timezone":"","wheelchair_boarding":""},{"stop_id":"1032256-20","stop_code":"","stop_name":"寄人(2)","stop_desc":"","stop_lat":"33.28611","stop_lon":"130.29788","zone_id":"1032256-20","stop_url":"","location_type":"0","parent_station":"1032256","stop_timezone":"","wheelchair_boarding":""},{"stop_id":"1032257-20","stop_code":"","stop_name":"城北団地(2)","stop_desc":"","stop_lat":"33.28786","stop_lon":"130.29782","zone_id":"1032257-20","stop_url":"","location_type":"0","parent_station":"1032257","stop_timezone":"","wheelchair_boarding":""},{"stop_id":"1032258-00","stop_code":"","stop_name":"二俣","stop_desc":"","stop_lat":"33.29016","stop_lon":"130.29794","zone_id":"1032258-00","stop_url":"","location_type":"0","parent_station":"1032258","stop_timezone":"","wheelchair_boarding":""},{"stop_id":"1032261-20","stop_code":"","stop_name":"グラスコート佐賀(2)","stop_desc":"","stop_lat":"33.30038","stop_lon":"130.29715","zone_id":"1032261-20","stop_url":"","location_type":"0","parent_station":"1032261","stop_timezone":"","wheelchair_boarding":""},{"stop_id":"1032262-20","stop_code":"","stop_name":"千布南(2)","stop_desc":"","stop_lat":"33.30606","stop_lon":"130.29948","zone_id":"1032262-20","stop_url":"","location_type":"0","parent_station":"1032262","stop_timezone":"","wheelchair_boarding":""},{"stop_id":"1032263-20","stop_code":"","stop_name":"東千布(2)","stop_desc":"","stop_lat":"33.30748","stop_lon":"130.30051","zone_id":"1032263-20","stop_url":"","location_type":"0","parent_station":"1032263","stop_timezone":"","wheelchair_boarding":""},{"stop_id":"1032264-00","stop_code":"","stop_name":"金立公民館前","stop_desc":"","stop_lat":"33.30748","stop_lon":"130.30341","zone_id":"1032264-00","stop_url":"","location_type":"0","parent_station":"1032264","stop_timezone":"","wheelchair_boarding":""},{"stop_id":"1032263-10","stop_code":"","stop_name":"東千布(1)","stop_desc":"","stop_lat":"33.30773","stop_lon":"130.3009","zone_id":"1032263-10","stop_url":"","location_type":"0","parent_station":"1032263","stop_timezone":"","wheelchair_boarding":""},{"stop_id":"1032262-10","stop_code":"","stop_name":"千布南(1)","stop_desc":"","stop_lat":"33.30611","stop_lon":"130.29964","zone_id":"1032262-10","stop_url":"","location_type":"0","parent_station":"1032262","stop_timezone":"","wheelchair_boarding":""},{"stop_id":"1032261-10","stop_code":"","stop_name":"グラスコート佐賀(1)","stop_desc":"","stop_lat":"33.29991","stop_lon":"130.29741","zone_id":"1032261-10","stop_url":"","location_type":"0","parent_station":"1032261","stop_timezone":"","wheelchair_boarding":""},{"stop_id":"1032257-10","stop_code":"","stop_name":"城北団地(1)","stop_desc":"","stop_lat":"33.28812","stop_lon":"130.29796","zone_id":"1032257-10","stop_url":"","location_type":"0","parent_station":"1032257","stop_timezone":"","wheelchair_boarding":""},{"stop_id":"1032256-10","stop_code":"","stop_name":"寄人(1)","stop_desc":"","stop_lat":"33.28542","stop_lon":"130.29799","zone_id":"1032256-10","stop_url":"","location_type":"0","parent_station":"1032256","stop_timezone":"","wheelchair_boarding":""},{"stop_id":"1032254-10","stop_code":"","stop_name":"市文化会館東(1)","stop_desc":"","stop_lat":"33.27874","stop_lon":"130.29865","zone_id":"1032254-10","stop_url":"","location_type":"0","parent_station":"1032254","stop_timezone":"","wheelchair_boarding":""},{"stop_id":"1032253-10","stop_code":"","stop_name":"佐賀北警察署前(1)","stop_desc":"","stop_lat":"33.273463","stop_lon":"130.300101","zone_id":"1032253-10","stop_url":"","location_type":"0","parent_station":"1032253","stop_timezone":"","wheelchair_boarding":""},{"stop_id":"1032252-10","stop_code":"","stop_name":"致遠館前(1)","stop_desc":"","stop_lat":"33.27199","stop_lon":"130.30043","zone_id":"1032252-10","stop_url":"","location_type":"0","parent_station":"1032252","stop_timezone":"","wheelchair_boarding":""},{"stop_id":"1032251-10","stop_code":"","stop_name":"藤木(1)","stop_desc":"","stop_lat":"33.2699","stop_lon":"130.30101","zone_id":"1032251-10","stop_url":"","location_type":"0","parent_station":"1032251","stop_timezone":"","wheelchair_boarding":""},{"stop_id":"1032259-20","stop_code":"","stop_name":"金立ケアセンター前(2)","stop_desc":"","stop_lat":"33.29759","stop_lon":"130.29738","zone_id":"1032259-20","stop_url":"","location_type":"0","parent_station":"1032259","stop_timezone":"","wheelchair_boarding":""},{"stop_id":"1032260-10","stop_code":"","stop_name":"健康運動センター(1)","stop_desc":"","stop_lat":"33.29786","stop_lon":"130.29366","zone_id":"1032260-10","stop_url":"","location_type":"0","parent_station":"1032260","stop_timezone":"","wheelchair_boarding":""},{"stop_id":"1032259-10","stop_code":"","stop_name":"金立ケアセンター前(1)","stop_desc":"","stop_lat":"33.29771","stop_lon":"130.29739","zone_id":"1032259-10","stop_url":"","location_type":"0","parent_station":"1032259","stop_timezone":"","wheelchair_boarding":""},{"stop_id":"1003014-00","stop_code":"","stop_name":"与賀町西","stop_desc":"","stop_lat":"33.249783","stop_lon":"130.291639","zone_id":"1003014-00","stop_url":"","location_type":"0","parent_station":"1003014","stop_timezone":"","wheelchair_boarding":""},{"stop_id":"1003015-20","stop_code":"","stop_name":"西田代(2)","stop_desc":"","stop_lat":"33.249142","stop_lon":"130.287336","zone_id":"1003015-20","stop_url":"","location_type":"0","parent_station":"1003015","stop_timezone":"","wheelchair_boarding":""},{"stop_id":"1003016-20","stop_code":"","stop_name":"道祖元町(2)","stop_desc":"","stop_lat":"33.2475","stop_lon":"130.28505","zone_id":"1003016-20","stop_url":"","location_type":"0","parent_station":"1003016","stop_timezone":"","wheelchair_boarding":""},{"stop_id":"1003016-10","stop_code":"","stop_name":"道祖元町(1)","stop_desc":"","stop_lat":"33.24747","stop_lon":"130.28499","zone_id":"1003016-10","stop_url":"","location_type":"0","parent_station":"1003016","stop_timezone":"","wheelchair_boarding":""},{"stop_id":"1003015-10","stop_code":"","stop_name":"西田代(1)","stop_desc":"","stop_lat":"33.24941","stop_lon":"130.288058","zone_id":"1003015-10","stop_url":"","location_type":"0","parent_station":"1003015","stop_timezone":"","wheelchair_boarding":""},{"stop_id":"1011035-20","stop_code":"","stop_name":"市役所南(2)","stop_desc":"","stop_lat":"33.262594","stop_lon":"130.30124","zone_id":"1011035-20","stop_url":"","location_type":"0","parent_station":"1011035","stop_timezone":"","wheelchair_boarding":""},{"stop_id":"1011036-20","stop_code":"","stop_name":"戸上電機前(2)","stop_desc":"","stop_lat":"33.261911","stop_lon":"130.303661","zone_id":"1011036-20","stop_url":"","location_type":"0","parent_station":"1011036","stop_timezone":"","wheelchair_boarding":""},{"stop_id":"1011037-20","stop_code":"","stop_name":"大財町(2)","stop_desc":"","stop_lat":"33.257961","stop_lon":"130.304731","zone_id":"1011037-20","stop_url":"","location_type":"0","parent_station":"1011037","stop_timezone":"","wheelchair_boarding":""},{"stop_id":"1028189-20","stop_code":"","stop_name":"サンテ溝上病院前(2)","stop_desc":"","stop_lat":"33.25698","stop_lon":"130.30414","zone_id":"1028189-20","stop_url":"","location_type":"0","parent_station":"1028189","stop_timezone":"","wheelchair_boarding":""},{"stop_id":"1028190-20","stop_code":"","stop_name":"エスプラッツ前(2)","stop_desc":"","stop_lat":"33.254604","stop_lon":"130.302427","zone_id":"1028190-20","stop_url":"","location_type":"0","parent_station":"1028190","stop_timezone":"","wheelchair_boarding":""},{"stop_id":"1011039-02","stop_code":"","stop_name":"片田江(2)[片田江東]","stop_desc":"","stop_lat":"33.251578","stop_lon":"130.306742","zone_id":"1011039-02","stop_url":"","location_type":"0","parent_station":"1011039","stop_timezone":"","wheelchair_boarding":""},{"stop_id":"1028191-20","stop_code":"","stop_name":"材木橋(2)","stop_desc":"","stop_lat":"33.25187","stop_lon":"130.308666","zone_id":"1028191-20","stop_url":"","location_type":"0","parent_station":"1028191","stop_timezone":"","wheelchair_boarding":""},{"stop_id":"1028192-20","stop_code":"","stop_name":"東佐賀(2)","stop_desc":"","stop_lat":"33.25195","stop_lon":"130.31303","zone_id":"1028192-20","stop_url":"","location_type":"0","parent_station":"1028192","stop_timezone":"","wheelchair_boarding":""},{"stop_id":"1028193-10","stop_code":"","stop_name":"東田代(1)","stop_desc":"","stop_lat":"33.24865","stop_lon":"130.31372","zone_id":"1028193-10","stop_url":"","location_type":"0","parent_station":"1028193","stop_timezone":"","wheelchair_boarding":""},{"stop_id":"1028194-20","stop_code":"","stop_name":"今宿町(2)","stop_desc":"","stop_lat":"33.24784","stop_lon":"130.31554","zone_id":"1028194-20","stop_url":"","location_type":"0","parent_station":"1028194","stop_timezone":"","wheelchair_boarding":""},{"stop_id":"1028195-20","stop_code":"","stop_name":"枝吉(2)","stop_desc":"","stop_lat":"33.24773","stop_lon":"130.31902","zone_id":"1028195-20","stop_url":"","location_type":"0","parent_station":"1028195","stop_timezone":"","wheelchair_boarding":""},{"stop_id":"1028196-20","stop_code":"","stop_name":"牛島下(2)","stop_desc":"","stop_lat":"33.24994","stop_lon":"130.32187","zone_id":"1028196-20","stop_url":"","location_type":"0","parent_station":"1028196","stop_timezone":"","wheelchair_boarding":""},{"stop_id":"2015194-10","stop_code":"","stop_name":"高尾(1)","stop_desc":"","stop_lat":"33.25331","stop_lon":"130.32291","zone_id":"2015194-10","stop_url":"","location_type":"0","parent_station":"2015194","stop_timezone":"","wheelchair_boarding":""},{"stop_id":"1028198-20","stop_code":"","stop_name":"老人センター前(2)","stop_desc":"","stop_lat":"33.25395","stop_lon":"130.32541","zone_id":"1028198-20","stop_url":"","location_type":"0","parent_station":"1028198","stop_timezone":"","wheelchair_boarding":""},{"stop_id":"1028199-20","stop_code":"","stop_name":"巨勢公民館前(2)","stop_desc":"","stop_lat":"33.25498","stop_lon":"130.32817","zone_id":"1028199-20","stop_url":"","location_type":"0","parent_station":"1028199","stop_timezone":"","wheelchair_boarding":""},{"stop_id":"1028200-10","stop_code":"","stop_name":"道崎(1)","stop_desc":"","stop_lat":"33.257638","stop_lon":"130.336628","zone_id":"1028200-10","stop_url":"","location_type":"0","parent_station":"1028200","stop_timezone":"","wheelchair_boarding":""},{"stop_id":"1028199-10","stop_code":"","stop_name":"巨勢公民館前(1)","stop_desc":"","stop_lat":"33.25477","stop_lon":"130.32823","zone_id":"1028199-10","stop_url":"","location_type":"0","parent_station":"1028199","stop_timezone":"","wheelchair_boarding":""},{"stop_id":"1028198-10","stop_code":"","stop_name":"老人センター前(1)","stop_desc":"","stop_lat":"33.25391","stop_lon":"130.32568","zone_id":"1028198-10","stop_url":"","location_type":"0","parent_station":"1028198","stop_timezone":"","wheelchair_boarding":""},{"stop_id":"2015194-20","stop_code":"","stop_name":"高尾(2)","stop_desc":"","stop_lat":"33.25318","stop_lon":"130.32303","zone_id":"2015194-20","stop_url":"","location_type":"0","parent_station":"2015194","stop_timezone":"","wheelchair_boarding":""},{"stop_id":"1028196-10","stop_code":"","stop_name":"牛島下(1)","stop_desc":"","stop_lat":"33.24995","stop_lon":"130.32204","zone_id":"1028196-10","stop_url":"","location_type":"0","parent_station":"1028196","stop_timezone":"","wheelchair_boarding":""},{"stop_id":"1028195-10","stop_code":"","stop_name":"枝吉(1)","stop_desc":"","stop_lat":"33.24761","stop_lon":"130.319","zone_id":"1028195-10","stop_url":"","location_type":"0","parent_station":"1028195","stop_timezone":"","wheelchair_boarding":""},{"stop_id":"1028194-10","stop_code":"","stop_name":"今宿町(1)","stop_desc":"","stop_lat":"33.24774","stop_lon":"130.31575","zone_id":"1028194-10","stop_url":"","location_type":"0","parent_station":"1028194","stop_timezone":"","wheelchair_boarding":""},{"stop_id":"1028193-20","stop_code":"","stop_name":"東田代(2)","stop_desc":"","stop_lat":"33.24858","stop_lon":"130.31358","zone_id":"1028193-20","stop_url":"","location_type":"0","parent_station":"1028193","stop_timezone":"","wheelchair_boarding":""},{"stop_id":"1028192-10","stop_code":"","stop_name":"東佐賀(1)","stop_desc":"","stop_lat":"33.25187","stop_lon":"130.31293","zone_id":"1028192-10","stop_url":"","location_type":"0","parent_station":"1028192","stop_timezone":"","wheelchair_boarding":""},{"stop_id":"1028191-10","stop_code":"","stop_name":"材木橋(1)","stop_desc":"","stop_lat":"33.251942","stop_lon":"130.309847","zone_id":"1028191-10","stop_url":"","location_type":"0","parent_station":"1028191","stop_timezone":"","wheelchair_boarding":""},{"stop_id":"1011039-03","stop_code":"","stop_name":"片田江(3)[片田江東]","stop_desc":"","stop_lat":"33.251478","stop_lon":"130.306743","zone_id":"1011039-03","stop_url":"","location_type":"0","parent_station":"1011039","stop_timezone":"","wheelchair_boarding":""},{"stop_id":"1002009-10","stop_code":"","stop_name":"佐嘉神社前(1)","stop_desc":"","stop_lat":"33.251077","stop_lon":"130.303443","zone_id":"1002009-10","stop_url":"","location_type":"0","parent_station":"1002009","stop_timezone":"","wheelchair_boarding":""},{"stop_id":"1028190-10","stop_code":"","stop_name":"エスプラッツ前(1)","stop_desc":"","stop_lat":"33.254698","stop_lon":"130.302336","zone_id":"1028190-10","stop_url":"","location_type":"0","parent_station":"1028190","stop_timezone":"","wheelchair_boarding":""},{"stop_id":"1028189-10","stop_code":"","stop_name":"サンテ溝上病院前(1)","stop_desc":"","stop_lat":"33.25693","stop_lon":"130.30367","zone_id":"1028189-10","stop_url":"","location_type":"0","parent_station":"1028189","stop_timezone":"","wheelchair_boarding":""},{"stop_id":"1011037-10","stop_code":"","stop_name":"大財町(1)","stop_desc":"","stop_lat":"33.257996","stop_lon":"130.304587","zone_id":"1011037-10","stop_url":"","location_type":"0","parent_station":"1011037","stop_timezone":"","wheelchair_boarding":""},{"stop_id":"1011036-10","stop_code":"","stop_name":"戸上電機前(1)","stop_desc":"","stop_lat":"33.261887","stop_lon":"130.303577","zone_id":"1011036-10","stop_url":"","location_type":"0","parent_station":"1011036","stop_timezone":"","wheelchair_boarding":""},{"stop_id":"1011035-10","stop_code":"","stop_name":"市役所南(1)","stop_desc":"","stop_lat":"33.262689","stop_lon":"130.302003","zone_id":"1011035-10","stop_url":"","location_type":"0","parent_station":"1011035","stop_timezone":"","wheelchair_boarding":""},{"stop_id":"1001002-07","stop_code":"","stop_name":"佐賀駅バスセンター 7番のりば","stop_desc":"","stop_lat":"33.26465","stop_lon":"130.29899","zone_id":"1001002-07","stop_url":"","location_type":"0","parent_station":"1001002","stop_timezone":"","wheelchair_boarding":""},{"stop_id":"1056303-20","stop_code":"","stop_name":"大財五丁目(2)","stop_desc":"","stop_lat":"33.26181","stop_lon":"130.30847","zone_id":"1056303-20","stop_url":"","location_type":"0","parent_station":"1056303","stop_timezone":"","wheelchair_boarding":""},{"stop_id":"1056304-20","stop_code":"","stop_name":"大財六丁目(2)","stop_desc":"","stop_lat":"33.26247","stop_lon":"130.31151","zone_id":"1056304-20","stop_url":"","location_type":"0","parent_station":"1056304","stop_timezone":"","wheelchair_boarding":""},{"stop_id":"1056305-20","stop_code":"","stop_name":"下村河畔(2)","stop_desc":"","stop_lat":"33.26328","stop_lon":"130.31578","zone_id":"1056305-20","stop_url":"","location_type":"0","parent_station":"1056305","stop_timezone":"","wheelchair_boarding":""},{"stop_id":"1060346-20","stop_code":"","stop_name":"佐賀中部病院前(2)","stop_desc":"","stop_lat":"33.26377","stop_lon":"130.31906","zone_id":"1060346-20","stop_url":"","location_type":"0","parent_station":"1060346","stop_timezone":"","wheelchair_boarding":""},{"stop_id":"1060347-02","stop_code":"","stop_name":"修理田(2)","stop_desc":"","stop_lat":"33.26438","stop_lon":"130.32227","zone_id":"1060347-02","stop_url":"","location_type":"0","parent_station":"1060347","stop_timezone":"","wheelchair_boarding":""},{"stop_id":"1060348-20","stop_code":"","stop_name":"中牟田(2)","stop_desc":"","stop_lat":"33.26637","stop_lon":"130.32748","zone_id":"1060348-20","stop_url":"","location_type":"0","parent_station":"1060348","stop_timezone":"","wheelchair_boarding":""},{"stop_id":"1060349-20","stop_code":"","stop_name":"瓦町南(2)","stop_desc":"","stop_lat":"33.2695","stop_lon":"130.33086","zone_id":"1060349-20","stop_url":"","location_type":"0","parent_station":"1060349","stop_timezone":"","wheelchair_boarding":""},{"stop_id":"1060350-20","stop_code":"","stop_name":"瓦町(2)","stop_desc":"","stop_lat":"33.27159","stop_lon":"130.33316","zone_id":"1060350-20","stop_url":"","location_type":"0","parent_station":"1060350","stop_timezone":"","wheelchair_boarding":""},{"stop_id":"1060351-20","stop_code":"","stop_name":"堀立(2)","stop_desc":"","stop_lat":"33.27503","stop_lon":"130.33688","zone_id":"1060351-20","stop_url":"","location_type":"0","parent_station":"1060351","stop_timezone":"","wheelchair_boarding":""},{"stop_id":"1060352-20","stop_code":"","stop_name":"堀立東(2)","stop_desc":"","stop_lat":"33.27743","stop_lon":"130.33842","zone_id":"1060352-20","stop_url":"","location_type":"0","parent_station":"1060352","stop_timezone":"","wheelchair_boarding":""},{"stop_id":"1060353-00","stop_code":"","stop_name":"外野","stop_desc":"","stop_lat":"33.28102","stop_lon":"130.33696","zone_id":"1060353-00","stop_url":"","location_type":"0","parent_station":"1060353","stop_timezone":"","wheelchair_boarding":""},{"stop_id":"1060354-00","stop_code":"","stop_name":"伊賀屋橋","stop_desc":"","stop_lat":"33.28399","stop_lon":"130.33578","zone_id":"1060354-00","stop_url":"","location_type":"0","parent_station":"1060354","stop_timezone":"","wheelchair_boarding":""},{"stop_id":"1060355-20","stop_code":"","stop_name":"伊賀屋(2)","stop_desc":"","stop_lat":"33.28799","stop_lon":"130.33485","zone_id":"1060355-20","stop_url":"","location_type":"0","parent_station":"1060355","stop_timezone":"","wheelchair_boarding":""},{"stop_id":"1060356-00","stop_code":"","stop_name":"中野吉","stop_desc":"","stop_lat":"33.29118","stop_lon":"130.33501","zone_id":"1060356-00","stop_url":"","location_type":"0","parent_station":"1060356","stop_timezone":"","wheelchair_boarding":""},{"stop_id":"1060357-00","stop_code":"","stop_name":"和泉野橋","stop_desc":"","stop_lat":"33.29678","stop_lon":"130.33365","zone_id":"1060357-00","stop_url":"","location_type":"0","parent_station":"1060357","stop_timezone":"","wheelchair_boarding":""},{"stop_id":"1060358-20","stop_code":"","stop_name":"折地(2)","stop_desc":"","stop_lat":"33.30191","stop_lon":"130.33145","zone_id":"1060358-20","stop_url":"","location_type":"0","parent_station":"1060358","stop_timezone":"","wheelchair_boarding":""},{"stop_id":"1060359-20","stop_code":"","stop_name":"下和泉(2)","stop_desc":"","stop_lat":"33.30361","stop_lon":"130.33031","zone_id":"1060359-20","stop_url":"","location_type":"0","parent_station":"1060359","stop_timezone":"","wheelchair_boarding":""},{"stop_id":"1060360-00","stop_code":"","stop_name":"上揚","stop_desc":"","stop_lat":"33.30836","stop_lon":"130.32828","zone_id":"1060360-00","stop_url":"","location_type":"0","parent_station":"1060360","stop_timezone":"","wheelchair_boarding":""},{"stop_id":"1060361-20","stop_code":"","stop_name":"久保泉工業団地東(2)","stop_desc":"","stop_lat":"33.31077","stop_lon":"130.32704","zone_id":"1060361-20","stop_url":"","location_type":"0","parent_station":"1060361","stop_timezone":"","wheelchair_boarding":""},{"stop_id":"1060362-20","stop_code":"","stop_name":"上和泉(2)","stop_desc":"","stop_lat":"33.31633","stop_lon":"130.32631","zone_id":"1060362-20","stop_url":"","location_type":"0","parent_station":"1060362","stop_timezone":"","wheelchair_boarding":""},{"stop_id":"1060363-20","stop_code":"","stop_name":"久保泉小学校前(2)","stop_desc":"","stop_lat":"33.32163","stop_lon":"130.32657","zone_id":"1060363-20","stop_url":"","location_type":"0","parent_station":"1060363","stop_timezone":"","wheelchair_boarding":""},{"stop_id":"1060364-20","stop_code":"","stop_name":"川久保(2)","stop_desc":"","stop_lat":"33.32463","stop_lon":"130.32684","zone_id":"1060364-20","stop_url":"","location_type":"0","parent_station":"1060364","stop_timezone":"","wheelchair_boarding":""},{"stop_id":"1060365-20","stop_code":"","stop_name":"川久保交差点北(2)","stop_desc":"","stop_lat":"33.32628","stop_lon":"130.32701","zone_id":"1060365-20","stop_url":"","location_type":"0","parent_station":"1060365","stop_timezone":"","wheelchair_boarding":""},{"stop_id":"1060366-00","stop_code":"","stop_name":"川久保中","stop_desc":"","stop_lat":"33.328362","stop_lon":"130.327396","zone_id":"1060366-00","stop_url":"","location_type":"0","parent_station":"1060366","stop_timezone":"","wheelchair_boarding":""},{"stop_id":"1060367-00","stop_code":"","stop_name":"上分公民館前","stop_desc":"","stop_lat":"33.33195","stop_lon":"130.32761","zone_id":"1060367-00","stop_url":"","location_type":"0","parent_station":"1060367","stop_timezone":"","wheelchair_boarding":""},{"stop_id":"1060368-00","stop_code":"","stop_name":"勝宿神社","stop_desc":"","stop_lat":"33.33578","stop_lon":"130.32718","zone_id":"1060368-00","stop_url":"","location_type":"0","parent_station":"1060368","stop_timezone":"","wheelchair_boarding":""},{"stop_id":"1060369-00","stop_code":"","stop_name":"清友病院前","stop_desc":"","stop_lat":"33.34","stop_lon":"130.32584","zone_id":"1060369-00","stop_url":"","location_type":"0","parent_station":"1060369","stop_timezone":"","wheelchair_boarding":""},{"stop_id":"1060365-10","stop_code":"","stop_name":"川久保交差点北(1)","stop_desc":"","stop_lat":"33.32624","stop_lon":"130.32716","zone_id":"1060365-10","stop_url":"","location_type":"0","parent_station":"1060365","stop_timezone":"","wheelchair_boarding":""},{"stop_id":"1060364-10","stop_code":"","stop_name":"川久保(1)","stop_desc":"","stop_lat":"33.32495","stop_lon":"130.32701","zone_id":"1060364-10","stop_url":"","location_type":"0","parent_station":"1060364","stop_timezone":"","wheelchair_boarding":""},{"stop_id":"1060363-10","stop_code":"","stop_name":"久保泉小学校前(1)","stop_desc":"","stop_lat":"33.3215","stop_lon":"130.32668","zone_id":"1060363-10","stop_url":"","location_type":"0","parent_station":"1060363","stop_timezone":"","wheelchair_boarding":""},{"stop_id":"1060362-10","stop_code":"","stop_name":"上和泉(1)","stop_desc":"","stop_lat":"33.31714","stop_lon":"130.32651","zone_id":"1060362-10","stop_url":"","location_type":"0","parent_station":"1060362","stop_timezone":"","wheelchair_boarding":""},{"stop_id":"1060361-10","stop_code":"","stop_name":"久保泉工業団地東(1)","stop_desc":"","stop_lat":"33.31018","stop_lon":"130.32747","zone_id":"1060361-10","stop_url":"","location_type":"0","parent_station":"1060361","stop_timezone":"","wheelchair_boarding":""},{"stop_id":"1060359-10","stop_code":"","stop_name":"下和泉(1)","stop_desc":"","stop_lat":"33.30502","stop_lon":"130.3298","zone_id":"1060359-10","stop_url":"","location_type":"0","parent_station":"1060359","stop_timezone":"","wheelchair_boarding":""},{"stop_id":"1060358-10","stop_code":"","stop_name":"折地(1)","stop_desc":"","stop_lat":"33.30179","stop_lon":"130.3317","zone_id":"1060358-10","stop_url":"","location_type":"0","parent_station":"1060358","stop_timezone":"","wheelchair_boarding":""},{"stop_id":"1060355-10","stop_code":"","stop_name":"伊賀屋(1)","stop_desc":"","stop_lat":"33.28815","stop_lon":"130.33488","zone_id":"1060355-10","stop_url":"","location_type":"0","parent_station":"1060355","stop_timezone":"","wheelchair_boarding":""},{"stop_id":"1060352-10","stop_code":"","stop_name":"堀立東(1)","stop_desc":"","stop_lat":"33.27746","stop_lon":"130.33861","zone_id":"1060352-10","stop_url":"","location_type":"0","parent_station":"1060352","stop_timezone":"","wheelchair_boarding":""},{"stop_id":"1060351-10","stop_code":"","stop_name":"堀立(1)","stop_desc":"","stop_lat":"33.27502","stop_lon":"130.33734","zone_id":"1060351-10","stop_url":"","location_type":"0","parent_station":"1060351","stop_timezone":"","wheelchair_boarding":""},{"stop_id":"1060350-10","stop_code":"","stop_name":"瓦町(1)","stop_desc":"","stop_lat":"33.27224","stop_lon":"130.334","zone_id":"1060350-10","stop_url":"","location_type":"0","parent_station":"1060350","stop_timezone":"","wheelchair_boarding":""},{"stop_id":"1060349-10","stop_code":"","stop_name":"瓦町南(1)","stop_desc":"","stop_lat":"33.26955","stop_lon":"130.33107","zone_id":"1060349-10","stop_url":"","location_type":"0","parent_station":"1060349","stop_timezone":"","wheelchair_boarding":""},{"stop_id":"1060348-10","stop_code":"","stop_name":"中牟田(1)","stop_desc":"","stop_lat":"33.26669","stop_lon":"130.32797","zone_id":"1060348-10","stop_url":"","location_type":"0","parent_station":"1060348","stop_timezone":"","wheelchair_boarding":""},{"stop_id":"1060347-01","stop_code":"","stop_name":"修理田(1)","stop_desc":"","stop_lat":"33.26431","stop_lon":"130.32245","zone_id":"1060347-01","stop_url":"","location_type":"0","parent_station":"1060347","stop_timezone":"","wheelchair_boarding":""},{"stop_id":"1060346-10","stop_code":"","stop_name":"佐賀中部病院前(1)","stop_desc":"","stop_lat":"33.26375","stop_lon":"130.31918","zone_id":"1060346-10","stop_url":"","location_type":"0","parent_station":"1060346","stop_timezone":"","wheelchair_boarding":""},{"stop_id":"1056305-10","stop_code":"","stop_name":"下村河畔(1)","stop_desc":"","stop_lat":"33.26313","stop_lon":"130.31523","zone_id":"1056305-10","stop_url":"","location_type":"0","parent_station":"1056305","stop_timezone":"","wheelchair_boarding":""},{"stop_id":"1056304-10","stop_code":"","stop_name":"大財六丁目(1)","stop_desc":"","stop_lat":"33.26221","stop_lon":"130.31102","zone_id":"1056304-10","stop_url":"","location_type":"0","parent_station":"1056304","stop_timezone":"","wheelchair_boarding":""},{"stop_id":"1056303-10","stop_code":"","stop_name":"大財五丁目(1)","stop_desc":"","stop_lat":"33.26163","stop_lon":"130.30818","zone_id":"1056303-10","stop_url":"","location_type":"0","parent_station":"1056303","stop_timezone":"","wheelchair_boarding":""},{"stop_id":"1050278-20","stop_code":"","stop_name":"神野公民館前(2)","stop_desc":"","stop_lat":"33.26372","stop_lon":"130.29018","zone_id":"1050278-20","stop_url":"","location_type":"0","parent_station":"1050278","stop_timezone":"","wheelchair_boarding":""},{"stop_id":"1050279-20","stop_code":"","stop_name":"昭和橋(2)","stop_desc":"","stop_lat":"33.26288","stop_lon":"130.28442","zone_id":"1050279-20","stop_url":"","location_type":"0","parent_station":"1050279","stop_timezone":"","wheelchair_boarding":""},{"stop_id":"1050280-20","stop_code":"","stop_name":"神野公園(2)","stop_desc":"","stop_lat":"33.2647","stop_lon":"130.2818","zone_id":"1050280-20","stop_url":"","location_type":"0","parent_station":"1050280","stop_timezone":"","wheelchair_boarding":""},{"stop_id":"1050281-20","stop_code":"","stop_name":"八戸溝郵便局前(2)","stop_desc":"","stop_lat":"33.26477","stop_lon":"130.27794","zone_id":"1050281-20","stop_url":"","location_type":"0","parent_station":"1050281","stop_timezone":"","wheelchair_boarding":""},{"stop_id":"1050282-20","stop_code":"","stop_name":"鍋島団地(2)","stop_desc":"","stop_lat":"33.266","stop_lon":"130.27638","zone_id":"1050282-20","stop_url":"","location_type":"0","parent_station":"1050282","stop_timezone":"","wheelchair_boarding":""},{"stop_id":"1050283-20","stop_code":"","stop_name":"鍋島新村(2)","stop_desc":"","stop_lat":"33.26877","stop_lon":"130.27585","zone_id":"1050283-20","stop_url":"","location_type":"0","parent_station":"1050283","stop_timezone":"","wheelchair_boarding":""},{"stop_id":"1050284-20","stop_code":"","stop_name":"ＪＡ佐賀市せいぶ支所前(2)","stop_desc":"","stop_lat":"33.2719","stop_lon":"130.27539","zone_id":"1050284-20","stop_url":"","location_type":"0","parent_station":"1050284","stop_timezone":"","wheelchair_boarding":""},{"stop_id":"1050285-20","stop_code":"","stop_name":"鍋島小学校前(2)","stop_desc":"","stop_lat":"33.27338","stop_lon":"130.27078","zone_id":"1050285-20","stop_url":"","location_type":"0","parent_station":"1050285","stop_timezone":"","wheelchair_boarding":""},{"stop_id":"1050286-20","stop_code":"","stop_name":"鍋島一丁目(2)","stop_desc":"","stop_lat":"33.2757","stop_lon":"130.2706","zone_id":"1050286-20","stop_url":"","location_type":"0","parent_station":"1050286","stop_timezone":"","wheelchair_boarding":""},{"stop_id":"1050287-20","stop_code":"","stop_name":"津留(2)","stop_desc":"","stop_lat":"33.27883","stop_lon":"130.26991","zone_id":"1050287-20","stop_url":"","location_type":"0","parent_station":"1050287","stop_timezone":"","wheelchair_boarding":""},{"stop_id":"1050295-20","stop_code":"","stop_name":"医学部入口(2)","stop_desc":"","stop_lat":"33.28187","stop_lon":"130.26909","zone_id":"1050295-20","stop_url":"","location_type":"0","parent_station":"1050295","stop_timezone":"","wheelchair_boarding":""},{"stop_id":"1050296-00","stop_code":"","stop_name":"佐賀大学病院","stop_desc":"","stop_lat":"33.2835","stop_lon":"130.26709","zone_id":"1050296-00","stop_url":"","location_type":"0","parent_station":"1050296","stop_timezone":"","wheelchair_boarding":""},{"stop_id":"1050295-10","stop_code":"","stop_name":"医学部入口(1)","stop_desc":"","stop_lat":"33.28265","stop_lon":"130.26884","zone_id":"1050295-10","stop_url":"","location_type":"0","parent_station":"1050295","stop_timezone":"","wheelchair_boarding":""},{"stop_id":"1050287-10","stop_code":"","stop_name":"津留(1)","stop_desc":"","stop_lat":"33.27949","stop_lon":"130.26993","zone_id":"1050287-10","stop_url":"","location_type":"0","parent_station":"1050287","stop_timezone":"","wheelchair_boarding":""},{"stop_id":"1050286-10","stop_code":"","stop_name":"鍋島一丁目(1)","stop_desc":"","stop_lat":"33.2756","stop_lon":"130.27065","zone_id":"1050286-10","stop_url":"","location_type":"0","parent_station":"1050286","stop_timezone":"","wheelchair_boarding":""},{"stop_id":"1050285-10","stop_code":"","stop_name":"鍋島小学校前(1)","stop_desc":"","stop_lat":"33.27367","stop_lon":"130.2709","zone_id":"1050285-10","stop_url":"","location_type":"0","parent_station":"1050285","stop_timezone":"","wheelchair_boarding":""},{"stop_id":"1050284-10","stop_code":"","stop_name":"ＪＡ佐賀市せいぶ支所前(1)","stop_desc":"","stop_lat":"33.27179","stop_lon":"130.27553","zone_id":"1050284-10","stop_url":"","location_type":"0","parent_station":"1050284","stop_timezone":"","wheelchair_boarding":""},{"stop_id":"1050283-10","stop_code":"","stop_name":"鍋島新村(1)","stop_desc":"","stop_lat":"33.26885","stop_lon":"130.27589","zone_id":"1050283-10","stop_url":"","location_type":"0","parent_station":"1050283","stop_timezone":"","wheelchair_boarding":""},{"stop_id":"1050282-10","stop_code":"","stop_name":"鍋島団地(1)","stop_desc":"","stop_lat":"33.26589","stop_lon":"130.27649","zone_id":"1050282-10","stop_url":"","location_type":"0","parent_station":"1050282","stop_timezone":"","wheelchair_boarding":""},{"stop_id":"1050281-10","stop_code":"","stop_name":"八戸溝郵便局前(1)","stop_desc":"","stop_lat":"33.26486","stop_lon":"130.27818","zone_id":"1050281-10","stop_url":"","location_type":"0","parent_station":"1050281","stop_timezone":"","wheelchair_boarding":""},{"stop_id":"1050280-10","stop_code":"","stop_name":"神野公園(1)","stop_desc":"","stop_lat":"33.26483","stop_lon":"130.28218","zone_id":"1050280-10","stop_url":"","location_type":"0","parent_station":"1050280","stop_timezone":"","wheelchair_boarding":""},{"stop_id":"1050279-10","stop_code":"","stop_name":"昭和橋(1)","stop_desc":"","stop_lat":"33.263","stop_lon":"130.2841","zone_id":"1050279-10","stop_url":"","location_type":"0","parent_station":"1050279","stop_timezone":"","wheelchair_boarding":""},{"stop_id":"1050278-10","stop_code":"","stop_name":"神野公民館前(1)","stop_desc":"","stop_lat":"33.26375","stop_lon":"130.28925","zone_id":"1050278-10","stop_url":"","location_type":"0","parent_station":"1050278","stop_timezone":"","wheelchair_boarding":""},{"stop_id":"1030219-03","stop_code":"","stop_name":"堀江通(3)","stop_desc":"","stop_lat":"33.26395","stop_lon":"130.29208","zone_id":"1030219-03","stop_url":"","location_type":"0","parent_station":"1030219","stop_timezone":"","wheelchair_boarding":""},{"stop_id":"1050288-20","stop_code":"","stop_name":"鍋島シェスト前(2)","stop_desc":"","stop_lat":"33.28006","stop_lon":"130.26875","zone_id":"1050288-20","stop_url":"","location_type":"0","parent_station":"1050288","stop_timezone":"","wheelchair_boarding":""},{"stop_id":"1050289-20","stop_code":"","stop_name":"鍋島西団地(2)","stop_desc":"","stop_lat":"33.27979","stop_lon":"130.2648","zone_id":"1050289-20","stop_url":"","location_type":"0","parent_station":"1050289","stop_timezone":"","wheelchair_boarding":""},{"stop_id":"1050290-20","stop_code":"","stop_name":"医学部西(2)","stop_desc":"","stop_lat":"33.2834","stop_lon":"130.26315","zone_id":"1050290-20","stop_url":"","location_type":"0","parent_station":"1050290","stop_timezone":"","wheelchair_boarding":""},{"stop_id":"1050291-20","stop_code":"","stop_name":"鍋島五丁目(2)","stop_desc":"","stop_lat":"33.28678","stop_lon":"130.26314","zone_id":"1050291-20","stop_url":"","location_type":"0","parent_station":"1050291","stop_timezone":"","wheelchair_boarding":""},{"stop_id":"1050292-10","stop_code":"","stop_name":"鍋島本村(1)","stop_desc":"","stop_lat":"33.28828","stop_lon":"130.26389","zone_id":"1050292-10","stop_url":"","location_type":"0","parent_station":"1050292","stop_timezone":"","wheelchair_boarding":""},{"stop_id":"1050293-20","stop_code":"","stop_name":"鍋島六丁目(2)","stop_desc":"","stop_lat":"33.2884","stop_lon":"130.26564","zone_id":"1050293-20","stop_url":"","location_type":"0","parent_station":"1050293","stop_timezone":"","wheelchair_boarding":""},{"stop_id":"1050294-20","stop_code":"","stop_name":"医学部北(2)","stop_desc":"","stop_lat":"33.28627","stop_lon":"130.26839","zone_id":"1050294-20","stop_url":"","location_type":"0","parent_station":"1050294","stop_timezone":"","wheelchair_boarding":""},{"stop_id":"1050294-10","stop_code":"","stop_name":"医学部北(1)","stop_desc":"","stop_lat":"33.28671","stop_lon":"130.26825","zone_id":"1050294-10","stop_url":"","location_type":"0","parent_station":"1050294","stop_timezone":"","wheelchair_boarding":""},{"stop_id":"1050293-10","stop_code":"","stop_name":"鍋島六丁目(1)","stop_desc":"","stop_lat":"33.28833","stop_lon":"130.2661","zone_id":"1050293-10","stop_url":"","location_type":"0","parent_station":"1050293","stop_timezone":"","wheelchair_boarding":""},{"stop_id":"1050292-20","stop_code":"","stop_name":"鍋島本村(2)","stop_desc":"","stop_lat":"33.28822","stop_lon":"130.26437","zone_id":"1050292-20","stop_url":"","location_type":"0","parent_station":"1050292","stop_timezone":"","wheelchair_boarding":""},{"stop_id":"1050291-10","stop_code":"","stop_name":"鍋島五丁目(1)","stop_desc":"","stop_lat":"33.286594","stop_lon":"130.263202","zone_id":"1050291-10","stop_url":"","location_type":"0","parent_station":"1050291","stop_timezone":"","wheelchair_boarding":""},{"stop_id":"1050290-10","stop_code":"","stop_name":"医学部西(1)","stop_desc":"","stop_lat":"33.28292","stop_lon":"130.26328","zone_id":"1050290-10","stop_url":"","location_type":"0","parent_station":"1050290","stop_timezone":"","wheelchair_boarding":""},{"stop_id":"1050289-10","stop_code":"","stop_name":"鍋島西団地(1)","stop_desc":"","stop_lat":"33.27991","stop_lon":"130.26523","zone_id":"1050289-10","stop_url":"","location_type":"0","parent_station":"1050289","stop_timezone":"","wheelchair_boarding":""},{"stop_id":"1050288-10","stop_code":"","stop_name":"鍋島シェスト前(1)","stop_desc":"","stop_lat":"33.28013","stop_lon":"130.26846","zone_id":"1050288-10","stop_url":"","location_type":"0","parent_station":"1050288","stop_timezone":"","wheelchair_boarding":""},{"stop_id":"1011039-06","stop_code":"","stop_name":"片田江(6)[片田江西]","stop_desc":"","stop_lat":"33.251407","stop_lon":"130.305366","zone_id":"1011039-06","stop_url":"","location_type":"0","parent_station":"1011039","stop_timezone":"","wheelchair_boarding":""},{"stop_id":"1020092-00","stop_code":"","stop_name":"水ヶ江大通り","stop_desc":"","stop_lat":"33.24954","stop_lon":"130.30637","zone_id":"1020092-00","stop_url":"","location_type":"0","parent_station":"1020092","stop_timezone":"","wheelchair_boarding":""},{"stop_id":"1020093-10","stop_code":"","stop_name":"大隈重信記念館入口(1)","stop_desc":"","stop_lat":"33.24824","stop_lon":"130.306808","zone_id":"1020093-10","stop_url":"","location_type":"0","parent_station":"1020093","stop_timezone":"","wheelchair_boarding":""},{"stop_id":"1020094-20","stop_code":"","stop_name":"竜校前(2)","stop_desc":"","stop_lat":"33.24588","stop_lon":"130.30806","zone_id":"1020094-20","stop_url":"","location_type":"0","parent_station":"1020094","stop_timezone":"","wheelchair_boarding":""},{"stop_id":"1020095-10","stop_code":"","stop_name":"横小路(1)","stop_desc":"","stop_lat":"33.244397","stop_lon":"130.308375","zone_id":"1020095-10","stop_url":"","location_type":"0","parent_station":"1020095","stop_timezone":"","wheelchair_boarding":""},{"stop_id":"1020096-01","stop_code":"","stop_name":"大崎(1)","stop_desc":"","stop_lat":"33.24174","stop_lon":"130.31029","zone_id":"1020096-01","stop_url":"","location_type":"0","parent_station":"1020096","stop_timezone":"","wheelchair_boarding":""},{"stop_id":"1020097-20","stop_code":"","stop_name":"自動車学校前(2)","stop_desc":"","stop_lat":"33.23967","stop_lon":"130.31569","zone_id":"1020097-20","stop_url":"","location_type":"0","parent_station":"1020097","stop_timezone":"","wheelchair_boarding":""},{"stop_id":"1020098-20","stop_code":"","stop_name":"南佐賀(2)","stop_desc":"","stop_lat":"33.23875","stop_lon":"130.31766","zone_id":"1020098-20","stop_url":"","location_type":"0","parent_station":"1020098","stop_timezone":"","wheelchair_boarding":""},{"stop_id":"1020099-20","stop_code":"","stop_name":"東高校前(2)","stop_desc":"","stop_lat":"33.23731","stop_lon":"130.32088","zone_id":"1020099-20","stop_url":"","location_type":"0","parent_station":"1020099","stop_timezone":"","wheelchair_boarding":""},{"stop_id":"1024156-20","stop_code":"","stop_name":"博物館前(2)","stop_desc":"","stop_lat":"33.24509","stop_lon":"130.3015","zone_id":"1024156-20","stop_url":"","location_type":"0","parent_station":"1024156","stop_timezone":"","wheelchair_boarding":""},{"stop_id":"1025170-20","stop_code":"","stop_name":"袋入口(2)","stop_desc":"","stop_lat":"33.23743","stop_lon":"130.30188","zone_id":"1025170-20","stop_url":"","location_type":"0","parent_station":"1025170","stop_timezone":"","wheelchair_boarding":""},{"stop_id":"1064370-20","stop_code":"","stop_name":"東与賀イオン前(2)","stop_desc":"","stop_lat":"33.22169","stop_lon":"130.3064","zone_id":"1064370-20","stop_url":"","location_type":"0","parent_station":"1064370","stop_timezone":"","wheelchair_boarding":""},{"stop_id":"1064371-20","stop_code":"","stop_name":"小々森北(2)","stop_desc":"","stop_lat":"33.19732","stop_lon":"130.30363","zone_id":"1064371-20","stop_url":"","location_type":"0","parent_station":"1064371","stop_timezone":"","wheelchair_boarding":""},{"stop_id":"1006035-01","stop_code":"","stop_name":"佐賀駐屯地(2)","stop_desc":"","stop_lat":"33.156292","stop_lon":"130.299443","zone_id":"1006035-01","stop_url":"","location_type":"0","parent_station":"1006035","stop_timezone":"","wheelchair_boarding":""},{"stop_id":"1001001-20","stop_code":"","stop_name":"佐賀空港(2)","stop_desc":"","stop_lat":"33.15367","stop_lon":"130.30376","zone_id":"1001001-20","stop_url":"","location_type":"0","parent_station":"1001001","stop_timezone":"","wheelchair_boarding":""},{"stop_id":"1006035-02","stop_code":"","stop_name":"佐賀駐屯地(1)","stop_desc":"","stop_lat":"33.156164","stop_lon":"130.299446","zone_id":"1006035-02","stop_url":"","location_type":"0","parent_station":"1006035","stop_timezone":"","wheelchair_boarding":""},{"stop_id":"1064371-10","stop_code":"","stop_name":"小々森北(1)","stop_desc":"","stop_lat":"33.19731","stop_lon":"130.30348","zone_id":"1064371-10","stop_url":"","location_type":"0","parent_station":"1064371","stop_timezone":"","wheelchair_boarding":""},{"stop_id":"1064370-10","stop_code":"","stop_name":"東与賀イオン前(1)","stop_desc":"","stop_lat":"33.22163","stop_lon":"130.3062","zone_id":"1064370-10","stop_url":"","location_type":"0","parent_station":"1064370","stop_timezone":"","wheelchair_boarding":""},{"stop_id":"1025170-10","stop_code":"","stop_name":"袋入口(1)","stop_desc":"","stop_lat":"33.23769","stop_lon":"130.30173","zone_id":"1025170-10","stop_url":"","location_type":"0","parent_station":"1025170","stop_timezone":"","wheelchair_boarding":""},{"stop_id":"1024156-10","stop_code":"","stop_name":"博物館前(1)","stop_desc":"","stop_lat":"33.24504","stop_lon":"130.30141","zone_id":"1024156-10","stop_url":"","location_type":"0","parent_station":"1024156","stop_timezone":"","wheelchair_boarding":""},{"stop_id":"1001001-10","stop_code":"","stop_name":"佐賀空港(1)","stop_desc":"","stop_lat":"33.15378","stop_lon":"130.30281","zone_id":"1001001-10","stop_url":"","location_type":"0","parent_station":"1001001","stop_timezone":"","wheelchair_boarding":""},{"stop_id":"1056306-20","stop_code":"","stop_name":"佐賀中部病院西(2)","stop_desc":"","stop_lat":"33.264","stop_lon":"130.31702","zone_id":"1056306-20","stop_url":"","location_type":"0","parent_station":"1056306","stop_timezone":"","wheelchair_boarding":""},{"stop_id":"1056307-20","stop_code":"","stop_name":"東中野(2)","stop_desc":"","stop_lat":"33.26653","stop_lon":"130.31575","zone_id":"1056307-20","stop_url":"","location_type":"0","parent_station":"1056307","stop_timezone":"","wheelchair_boarding":""},{"stop_id":"1056308-20","stop_code":"","stop_name":"兵庫小学校西(2)","stop_desc":"","stop_lat":"33.271512","stop_lon":"130.317634","zone_id":"1056308-20","stop_url":"","location_type":"0","parent_station":"1056308","stop_timezone":"","wheelchair_boarding":""},{"stop_id":"1056309-00","stop_code":"","stop_name":"下渕南","stop_desc":"","stop_lat":"33.2736","stop_lon":"130.31734","zone_id":"1056309-00","stop_url":"","location_type":"0","parent_station":"1056309","stop_timezone":"","wheelchair_boarding":""},{"stop_id":"1056310-00","stop_code":"","stop_name":"下渕","stop_desc":"","stop_lat":"33.27771","stop_lon":"130.31651","zone_id":"1056310-00","stop_url":"","location_type":"0","parent_station":"1056310","stop_timezone":"","wheelchair_boarding":""},{"stop_id":"1056311-00","stop_code":"","stop_name":"妙常寺前","stop_desc":"","stop_lat":"33.28048","stop_lon":"130.31544","zone_id":"1056311-00","stop_url":"","location_type":"0","parent_station":"1056311","stop_timezone":"","wheelchair_boarding":""},{"stop_id":"1056312-00","stop_code":"","stop_name":"うえむら病院前","stop_desc":"","stop_lat":"33.28223","stop_lon":"130.31462","zone_id":"1056312-00","stop_url":"","location_type":"0","parent_station":"1056312","stop_timezone":"","wheelchair_boarding":""},{"stop_id":"1056313-20","stop_code":"","stop_name":"兵庫団地前(2)","stop_desc":"","stop_lat":"33.28438","stop_lon":"130.31471","zone_id":"1056313-20","stop_url":"","location_type":"0","parent_station":"1056313","stop_timezone":"","wheelchair_boarding":""},{"stop_id":"1056314-00","stop_code":"","stop_name":"初町","stop_desc":"","stop_lat":"33.28874","stop_lon":"130.31458","zone_id":"1056314-00","stop_url":"","location_type":"0","parent_station":"1056314","stop_timezone":"","wheelchair_boarding":""},{"stop_id":"1056315-00","stop_code":"","stop_name":"東渕","stop_desc":"","stop_lat":"33.29063","stop_lon":"130.31419","zone_id":"1056315-00","stop_url":"","location_type":"0","parent_station":"1056315","stop_timezone":"","wheelchair_boarding":""},{"stop_id":"1056316-00","stop_code":"","stop_name":"渕頭","stop_desc":"","stop_lat":"33.29187","stop_lon":"130.31374","zone_id":"1056316-00","stop_url":"","location_type":"0","parent_station":"1056316","stop_timezone":"","wheelchair_boarding":""},{"stop_id":"1056317-20","stop_code":"","stop_name":"かささぎの里前(2)","stop_desc":"","stop_lat":"33.30112","stop_lon":"130.31317","zone_id":"1056317-20","stop_url":"","location_type":"0","parent_station":"1056317","stop_timezone":"","wheelchair_boarding":""},{"stop_id":"1056318-20","stop_code":"","stop_name":"徳永(2)","stop_desc":"","stop_lat":"33.30288","stop_lon":"130.31419","zone_id":"1056318-20","stop_url":"","location_type":"0","parent_station":"1056318","stop_timezone":"","wheelchair_boarding":""},{"stop_id":"0000003-01","stop_code":"","stop_name":"きりんむら(2)","stop_desc":"","stop_lat":"33.30484","stop_lon":"130.315321","zone_id":"0000003-01","stop_url":"","location_type":"0","parent_station":"0000003","stop_timezone":"","wheelchair_boarding":""},{"stop_id":"1056319-20","stop_code":"","stop_name":"白鬚神社前(2)","stop_desc":"","stop_lat":"33.30373","stop_lon":"130.31888","zone_id":"1056319-20","stop_url":"","location_type":"0","parent_station":"1056319","stop_timezone":"","wheelchair_boarding":""},{"stop_id":"1056320-20","stop_code":"","stop_name":"村徳永(2)","stop_desc":"","stop_lat":"33.30809","stop_lon":"130.31906","zone_id":"1056320-20","stop_url":"","location_type":"0","parent_station":"1056320","stop_timezone":"","wheelchair_boarding":""},{"stop_id":"1056321-20","stop_code":"","stop_name":"工業団地事務所前(2)","stop_desc":"","stop_lat":"33.31185","stop_lon":"130.31859","zone_id":"1056321-20","stop_url":"","location_type":"0","parent_station":"1056321","stop_timezone":"","wheelchair_boarding":""},{"stop_id":"1056322-20","stop_code":"","stop_name":"久保泉工業団地西(2)","stop_desc":"","stop_lat":"33.31261","stop_lon":"130.31964","zone_id":"1056322-20","stop_url":"","location_type":"0","parent_station":"1056322","stop_timezone":"","wheelchair_boarding":""},{"stop_id":"1056323-00","stop_code":"","stop_name":"久保泉工業団地","stop_desc":"","stop_lat":"33.31266","stop_lon":"130.32291","zone_id":"1056323-00","stop_url":"","location_type":"0","parent_station":"1056323","stop_timezone":"","wheelchair_boarding":""},{"stop_id":"1056322-10","stop_code":"","stop_name":"久保泉工業団地西(1)","stop_desc":"","stop_lat":"33.31247","stop_lon":"130.31967","zone_id":"1056322-10","stop_url":"","location_type":"0","parent_station":"1056322","stop_timezone":"","wheelchair_boarding":""},{"stop_id":"1056321-10","stop_code":"","stop_name":"工業団地事務所前(1)","stop_desc":"","stop_lat":"33.3112","stop_lon":"130.31876","zone_id":"1056321-10","stop_url":"","location_type":"0","parent_station":"1056321","stop_timezone":"","wheelchair_boarding":""},{"stop_id":"1056320-10","stop_code":"","stop_name":"村徳永(1)","stop_desc":"","stop_lat":"33.30783","stop_lon":"130.31924","zone_id":"1056320-10","stop_url":"","location_type":"0","parent_station":"1056320","stop_timezone":"","wheelchair_boarding":""},{"stop_id":"1056319-10","stop_code":"","stop_name":"白鬚神社前(1)","stop_desc":"","stop_lat":"33.30376","stop_lon":"130.31834","zone_id":"1056319-10","stop_url":"","location_type":"0","parent_station":"1056319","stop_timezone":"","wheelchair_boarding":""},{"stop_id":"0000003-02","stop_code":"","stop_name":"きりんむら(1)","stop_desc":"","stop_lat":"33.30479","stop_lon":"130.315401","zone_id":"0000003-02","stop_url":"","location_type":"0","parent_station":"0000003","stop_timezone":"","wheelchair_boarding":""},{"stop_id":"1056318-10","stop_code":"","stop_name":"徳永(1)","stop_desc":"","stop_lat":"33.30281","stop_lon":"130.31404","zone_id":"1056318-10","stop_url":"","location_type":"0","parent_station":"1056318","stop_timezone":"","wheelchair_boarding":""},{"stop_id":"1056317-10","stop_code":"","stop_name":"かささぎの里前(1)","stop_desc":"","stop_lat":"33.30116","stop_lon":"130.31329","zone_id":"1056317-10","stop_url":"","location_type":"0","parent_station":"1056317","stop_timezone":"","wheelchair_boarding":""},{"stop_id":"1056313-10","stop_code":"","stop_name":"兵庫団地前(1)","stop_desc":"","stop_lat":"33.28435","stop_lon":"130.31482","zone_id":"1056313-10","stop_url":"","location_type":"0","parent_station":"1056313","stop_timezone":"","wheelchair_boarding":""},{"stop_id":"1056308-10","stop_code":"","stop_name":"兵庫小学校西(1)","stop_desc":"","stop_lat":"33.271545","stop_lon":"130.317757","zone_id":"1056308-10","stop_url":"","location_type":"0","parent_station":"1056308","stop_timezone":"","wheelchair_boarding":""},{"stop_id":"1056307-10","stop_code":"","stop_name":"東中野(1)","stop_desc":"","stop_lat":"33.26635","stop_lon":"130.31604","zone_id":"1056307-10","stop_url":"","location_type":"0","parent_station":"1056307","stop_timezone":"","wheelchair_boarding":""},{"stop_id":"1056306-10","stop_code":"","stop_name":"佐賀中部病院西(1)","stop_desc":"","stop_lat":"33.26427","stop_lon":"130.31714","zone_id":"1056306-10","stop_url":"","location_type":"0","parent_station":"1056306","stop_timezone":"","wheelchair_boarding":""},{"stop_id":"1030218-02","stop_code":"","stop_name":"佐賀駅北口(2)","stop_desc":"","stop_lat":"33.26554","stop_lon":"130.29716","zone_id":"1030218-02","stop_url":"","location_type":"0","parent_station":"1030218","stop_timezone":"","wheelchair_boarding":""},{"stop_id":"1036265-20","stop_code":"","stop_name":"九電工前(2)","stop_desc":"","stop_lat":"33.26682","stop_lon":"130.29521","zone_id":"1036265-20","stop_url":"","location_type":"0","parent_station":"1036265","stop_timezone":"","wheelchair_boarding":""},{"stop_id":"1036266-20","stop_code":"","stop_name":"電通通り(2)","stop_desc":"","stop_lat":"33.26617","stop_lon":"130.29106","zone_id":"1036266-20","stop_url":"","location_type":"0","parent_station":"1036266","stop_timezone":"","wheelchair_boarding":""},{"stop_id":"1036267-20","stop_code":"","stop_name":"真生幼稚園前(2)","stop_desc":"","stop_lat":"33.26627","stop_lon":"130.28728","zone_id":"1036267-20","stop_url":"","location_type":"0","parent_station":"1036267","stop_timezone":"","wheelchair_boarding":""},{"stop_id":"1036268-20","stop_code":"","stop_name":"神野西四丁目(2)","stop_desc":"","stop_lat":"33.26844","stop_lon":"130.28697","zone_id":"1036268-20","stop_url":"","location_type":"0","parent_station":"1036268","stop_timezone":"","wheelchair_boarding":""},{"stop_id":"1051297-20","stop_code":"","stop_name":"西九大神園南(2)","stop_desc":"","stop_lat":"33.26943","stop_lon":"130.28459","zone_id":"1051297-20","stop_url":"","location_type":"0","parent_station":"1051297","stop_timezone":"","wheelchair_boarding":""},{"stop_id":"1051298-20","stop_code":"","stop_name":"常盤団地入口(2)","stop_desc":"","stop_lat":"33.2689","stop_lon":"130.28163","zone_id":"1051298-20","stop_url":"","location_type":"0","parent_station":"1051298","stop_timezone":"","wheelchair_boarding":""},{"stop_id":"1051299-20","stop_code":"","stop_name":"鍋島東団地(2)","stop_desc":"","stop_lat":"33.26871","stop_lon":"130.28021","zone_id":"1051299-20","stop_url":"","location_type":"0","parent_station":"1051299","stop_timezone":"","wheelchair_boarding":""},{"stop_id":"1051300-20","stop_code":"","stop_name":"開成三丁目(2)","stop_desc":"","stop_lat":"33.26971","stop_lon":"130.27791","zone_id":"1051300-20","stop_url":"","location_type":"0","parent_station":"1051300","stop_timezone":"","wheelchair_boarding":""},{"stop_id":"1051301-20","stop_code":"","stop_name":"アルタ開成店東(2)","stop_desc":"","stop_lat":"33.2716","stop_lon":"130.27756","zone_id":"1051301-20","stop_url":"","location_type":"0","parent_station":"1051301","stop_timezone":"","wheelchair_boarding":""},{"stop_id":"1051302-10","stop_code":"","stop_name":"卸センター前(1)","stop_desc":"","stop_lat":"33.27259","stop_lon":"130.27696","zone_id":"1051302-10","stop_url":"","location_type":"0","parent_station":"1051302","stop_timezone":"","wheelchair_boarding":""},{"stop_id":"1051301-10","stop_code":"","stop_name":"アルタ開成店東(1)","stop_desc":"","stop_lat":"33.27168","stop_lon":"130.27766","zone_id":"1051301-10","stop_url":"","location_type":"0","parent_station":"1051301","stop_timezone":"","wheelchair_boarding":""},{"stop_id":"1051300-10","stop_code":"","stop_name":"開成三丁目(1)","stop_desc":"","stop_lat":"33.26984","stop_lon":"130.27797","zone_id":"1051300-10","stop_url":"","location_type":"0","parent_station":"1051300","stop_timezone":"","wheelchair_boarding":""},{"stop_id":"1051299-10","stop_code":"","stop_name":"鍋島東団地(1)","stop_desc":"","stop_lat":"33.26874","stop_lon":"130.28003","zone_id":"1051299-10","stop_url":"","location_type":"0","parent_station":"1051299","stop_timezone":"","wheelchair_boarding":""},{"stop_id":"1051298-10","stop_code":"","stop_name":"常盤団地入口(1)","stop_desc":"","stop_lat":"33.26897","stop_lon":"130.281279","zone_id":"1051298-10","stop_url":"","location_type":"0","parent_station":"1051298","stop_timezone":"","wheelchair_boarding":""},{"stop_id":"1051297-10","stop_code":"","stop_name":"西九大神園南(1)","stop_desc":"","stop_lat":"33.26961","stop_lon":"130.28505","zone_id":"1051297-10","stop_url":"","location_type":"0","parent_station":"1051297","stop_timezone":"","wheelchair_boarding":""},{"stop_id":"1036268-10","stop_code":"","stop_name":"神野西四丁目(1)","stop_desc":"","stop_lat":"33.26825","stop_lon":"130.28706","zone_id":"1036268-10","stop_url":"","location_type":"0","parent_station":"1036268","stop_timezone":"","wheelchair_boarding":""},{"stop_id":"1036267-10","stop_code":"","stop_name":"真生幼稚園前(1)","stop_desc":"","stop_lat":"33.26582","stop_lon":"130.28799","zone_id":"1036267-10","stop_url":"","location_type":"0","parent_station":"1036267","stop_timezone":"","wheelchair_boarding":""},{"stop_id":"1036266-10","stop_code":"","stop_name":"電通通り(1)","stop_desc":"","stop_lat":"33.26625","stop_lon":"130.29097","zone_id":"1036266-10","stop_url":"","location_type":"0","parent_station":"1036266","stop_timezone":"","wheelchair_boarding":""},{"stop_id":"1036265-10","stop_code":"","stop_name":"九電工前(1)","stop_desc":"","stop_lat":"33.26694","stop_lon":"130.29567","zone_id":"1036265-10","stop_url":"","location_type":"0","parent_station":"1036265","stop_timezone":"","wheelchair_boarding":""},{"stop_id":"1030218-01","stop_code":"","stop_name":"佐賀駅北口(1)","stop_desc":"","stop_lat":"33.26532","stop_lon":"130.29736","zone_id":"1030218-01","stop_url":"","location_type":"0","parent_station":"1030218","stop_timezone":"","wheelchair_boarding":""},{"stop_id":"1001002-05","stop_code":"","stop_name":"佐賀駅バスセンター 5番のりば","stop_desc":"","stop_lat":"33.264317","stop_lon":"130.299013","zone_id":"1001002-05","stop_url":"","location_type":"0","parent_station":"1001002","stop_timezone":"","wheelchair_boarding":""},{"stop_id":"1018074-20","stop_code":"","stop_name":"長瀬町(2)","stop_desc":"","stop_lat":"33.247879","stop_lon":"130.282472","zone_id":"1018074-20","stop_url":"","location_type":"0","parent_station":"1018074","stop_timezone":"","wheelchair_boarding":""},{"stop_id":"1018075-20","stop_code":"","stop_name":"地蔵前(2)","stop_desc":"","stop_lat":"33.246404","stop_lon":"130.27735","zone_id":"1018075-20","stop_url":"","location_type":"0","parent_station":"1018075","stop_timezone":"","wheelchair_boarding":""},{"stop_id":"1018076-20","stop_code":"","stop_name":"普門寺(2)","stop_desc":"","stop_lat":"33.245706","stop_lon":"130.274086","zone_id":"1018076-20","stop_url":"","location_type":"0","parent_station":"1018076","stop_timezone":"","wheelchair_boarding":""},{"stop_id":"1018077-20","stop_code":"","stop_name":"高橋(2)","stop_desc":"","stop_lat":"33.245314","stop_lon":"130.272213","zone_id":"1018077-20","stop_url":"","location_type":"0","parent_station":"1018077","stop_timezone":"","wheelchair_boarding":""},{"stop_id":"1018078-20","stop_code":"","stop_name":"扇町東(2)","stop_desc":"","stop_lat":"33.244579","stop_lon":"130.268005","zone_id":"1018078-20","stop_url":"","location_type":"0","parent_station":"1018078","stop_timezone":"","wheelchair_boarding":""},{"stop_id":"1018079-00","stop_code":"","stop_name":"扇町","stop_desc":"","stop_lat":"33.243948","stop_lon":"130.263659","zone_id":"1018079-00","stop_url":"","location_type":"0","parent_station":"1018079","stop_timezone":"","wheelchair_boarding":""},{"stop_id":"1018080-01","stop_code":"","stop_name":"嘉瀬元町(1)","stop_desc":"","stop_lat":"33.243206","stop_lon":"130.258568","zone_id":"1018080-01","stop_url":"","location_type":"0","parent_station":"1018080","stop_timezone":"","wheelchair_boarding":""},{"stop_id":"1027184-20","stop_code":"","stop_name":"十五(2)","stop_desc":"","stop_lat":"33.23542","stop_lon":"130.25787","zone_id":"1027184-20","stop_url":"","location_type":"0","parent_station":"1027184","stop_timezone":"","wheelchair_boarding":""},{"stop_id":"1027185-20","stop_code":"","stop_name":"十五南(2)","stop_desc":"","stop_lat":"33.22996","stop_lon":"130.25766","zone_id":"1027185-20","stop_url":"","location_type":"0","parent_station":"1027185","stop_timezone":"","wheelchair_boarding":""},{"stop_id":"1027186-20","stop_code":"","stop_name":"嘉瀬新町(2)","stop_desc":"","stop_lat":"33.22515","stop_lon":"130.25755","zone_id":"1027186-20","stop_url":"","location_type":"0","parent_station":"1027186","stop_timezone":"","wheelchair_boarding":""},{"stop_id":"1027187-20","stop_code":"","stop_name":"新町中央(2)","stop_desc":"","stop_lat":"33.22192","stop_lon":"130.25749","zone_id":"1027187-20","stop_url":"","location_type":"0","parent_station":"1027187","stop_timezone":"","wheelchair_boarding":""},{"stop_id":"1011053-02","stop_code":"","stop_name":"本庄江橋(2)","stop_desc":"","stop_lat":"33.21973","stop_lon":"130.25766","zone_id":"1011053-02","stop_url":"","location_type":"0","parent_station":"1011053","stop_timezone":"","wheelchair_boarding":""},{"stop_id":"1011054-20","stop_code":"","stop_name":"久保田橋(2)","stop_desc":"","stop_lat":"33.21989","stop_lon":"130.24843","zone_id":"1011054-20","stop_url":"","location_type":"0","parent_station":"1011054","stop_timezone":"","wheelchair_boarding":""},{"stop_id":"1011055-20","stop_code":"","stop_name":"久富(2)","stop_desc":"","stop_lat":"33.21999","stop_lon":"130.24654","zone_id":"1011055-20","stop_url":"","location_type":"0","parent_station":"1011055","stop_timezone":"","wheelchair_boarding":""},{"stop_id":"1011056-20","stop_code":"","stop_name":"くぼた特産物直売所前(2)","stop_desc":"","stop_lat":"33.21982","stop_lon":"130.24345","zone_id":"1011056-20","stop_url":"","location_type":"0","parent_station":"1011056","stop_timezone":"","wheelchair_boarding":""},{"stop_id":"1018085-20","stop_code":"","stop_name":"元小路(2)","stop_desc":"","stop_lat":"33.24189","stop_lon":"130.23767","zone_id":"1018085-20","stop_url":"","location_type":"0","parent_station":"1018085","stop_timezone":"","wheelchair_boarding":""},{"stop_id":"1018086-20","stop_code":"","stop_name":"中副(2)","stop_desc":"","stop_lat":"33.23952","stop_lon":"130.23799","zone_id":"1018086-20","stop_url":"","location_type":"0","parent_station":"1018086","stop_timezone":"","wheelchair_boarding":""},{"stop_id":"1018087-20","stop_code":"","stop_name":"思斉館前(2)","stop_desc":"","stop_lat":"33.23375","stop_lon":"130.23943","zone_id":"1018087-20","stop_url":"","location_type":"0","parent_station":"1018087","stop_timezone":"","wheelchair_boarding":""},{"stop_id":"1001402-01","stop_code":"","stop_name":"久保田支所前（1）","stop_desc":"","stop_lat":"33.232076","stop_lon":"130.239873","zone_id":"1001402-01","stop_url":"","location_type":"0","parent_station":"1001402","stop_timezone":"","wheelchair_boarding":""},{"stop_id":"1018088-00","stop_code":"","stop_name":"横江","stop_desc":"","stop_lat":"33.22612","stop_lon":"130.24089","zone_id":"1018088-00","stop_url":"","location_type":"0","parent_station":"1018088","stop_timezone":"","wheelchair_boarding":""},{"stop_id":"1018089-20","stop_code":"","stop_name":"久富西(2)","stop_desc":"","stop_lat":"33.22044","stop_lon":"130.24173","zone_id":"1018089-20","stop_url":"","location_type":"0","parent_station":"1018089","stop_timezone":"","wheelchair_boarding":""},{"stop_id":"1011056-10","stop_code":"","stop_name":"くぼた特産物直売所前(1)","stop_desc":"","stop_lat":"33.22001","stop_lon":"130.24435","zone_id":"1011056-10","stop_url":"","location_type":"0","parent_station":"1011056","stop_timezone":"","wheelchair_boarding":""},{"stop_id":"1011055-10","stop_code":"","stop_name":"久富(1)","stop_desc":"","stop_lat":"33.22015","stop_lon":"130.2466","zone_id":"1011055-10","stop_url":"","location_type":"0","parent_station":"1011055","stop_timezone":"","wheelchair_boarding":""},{"stop_id":"1011054-10","stop_code":"","stop_name":"久保田橋(1)","stop_desc":"","stop_lat":"33.21992","stop_lon":"130.24913","zone_id":"1011054-10","stop_url":"","location_type":"0","parent_station":"1011054","stop_timezone":"","wheelchair_boarding":""},{"stop_id":"1011053-01","stop_code":"","stop_name":"本庄江橋(1)","stop_desc":"","stop_lat":"33.21976","stop_lon":"130.25752","zone_id":"1011053-01","stop_url":"","location_type":"0","parent_station":"1011053","stop_timezone":"","wheelchair_boarding":""},{"stop_id":"1027187-10","stop_code":"","stop_name":"新町中央(1)","stop_desc":"","stop_lat":"33.22211","stop_lon":"130.25745","zone_id":"1027187-10","stop_url":"","location_type":"0","parent_station":"1027187","stop_timezone":"","wheelchair_boarding":""},{"stop_id":"1027186-10","stop_code":"","stop_name":"嘉瀬新町(1)","stop_desc":"","stop_lat":"33.22516","stop_lon":"130.25746","zone_id":"1027186-10","stop_url":"","location_type":"0","parent_station":"1027186","stop_timezone":"","wheelchair_boarding":""},{"stop_id":"1027185-10","stop_code":"","stop_name":"十五南(1)","stop_desc":"","stop_lat":"33.23038","stop_lon":"130.25763","zone_id":"1027185-10","stop_url":"","location_type":"0","parent_station":"1027185","stop_timezone":"","wheelchair_boarding":""},{"stop_id":"1027184-10","stop_code":"","stop_name":"十五(1)","stop_desc":"","stop_lat":"33.23582","stop_lon":"130.25787","zone_id":"1027184-10","stop_url":"","location_type":"0","parent_station":"1027184","stop_timezone":"","wheelchair_boarding":""},{"stop_id":"1018080-02","stop_code":"","stop_name":"嘉瀬元町(2)","stop_desc":"","stop_lat":"33.24265","stop_lon":"130.25797","zone_id":"1018080-02","stop_url":"","location_type":"0","parent_station":"1018080","stop_timezone":"","wheelchair_boarding":""},{"stop_id":"1018078-10","stop_code":"","stop_name":"扇町東(1)","stop_desc":"","stop_lat":"33.244415","stop_lon":"130.266433","zone_id":"1018078-10","stop_url":"","location_type":"0","parent_station":"1018078","stop_timezone":"","wheelchair_boarding":""},{"stop_id":"1018077-10","stop_code":"","stop_name":"高橋(1)","stop_desc":"","stop_lat":"33.245147","stop_lon":"130.270842","zone_id":"1018077-10","stop_url":"","location_type":"0","parent_station":"1018077","stop_timezone":"","wheelchair_boarding":""},{"stop_id":"1018076-10","stop_code":"","stop_name":"普門寺(1)","stop_desc":"","stop_lat":"33.245655","stop_lon":"130.273292","zone_id":"1018076-10","stop_url":"","location_type":"0","parent_station":"1018076","stop_timezone":"","wheelchair_boarding":""},{"stop_id":"1018075-10","stop_code":"","stop_name":"地蔵前(1)","stop_desc":"","stop_lat":"33.246535","stop_lon":"130.277491","zone_id":"1018075-10","stop_url":"","location_type":"0","parent_station":"1018075","stop_timezone":"","wheelchair_boarding":""},{"stop_id":"1018074-10","stop_code":"","stop_name":"長瀬町(1)","stop_desc":"","stop_lat":"33.248191","stop_lon":"130.283375","zone_id":"1018074-10","stop_url":"","location_type":"0","parent_station":"1018074","stop_timezone":"","wheelchair_boarding":""},{"stop_id":"1019091-00","stop_code":"","stop_name":"医療センター好生館","stop_desc":"","stop_lat":"33.241555","stop_lon":"130.267985","zone_id":"1019091-00","stop_url":"","location_type":"0","parent_station":"1019091","stop_timezone":"","wheelchair_boarding":""},{"stop_id":"1018089-10","stop_code":"","stop_name":"久富西(1)","stop_desc":"","stop_lat":"33.22029","stop_lon":"130.24165","zone_id":"1018089-10","stop_url":"","location_type":"0","parent_station":"1018089","stop_timezone":"","wheelchair_boarding":""},{"stop_id":"1001402-02","stop_code":"","stop_name":"久保田支所前（2）","stop_desc":"","stop_lat":"33.231926","stop_lon":"130.239736","zone_id":"1001402-02","stop_url":"","location_type":"0","parent_station":"1001402","stop_timezone":"","wheelchair_boarding":""},{"stop_id":"1018087-10","stop_code":"","stop_name":"思斉館前(1)","stop_desc":"","stop_lat":"33.23378","stop_lon":"130.23935","zone_id":"1018087-10","stop_url":"","location_type":"0","parent_station":"1018087","stop_timezone":"","wheelchair_boarding":""},{"stop_id":"1018086-10","stop_code":"","stop_name":"中副(1)","stop_desc":"","stop_lat":"33.23941","stop_lon":"130.237836","zone_id":"1018086-10","stop_url":"","location_type":"0","parent_station":"1018086","stop_timezone":"","wheelchair_boarding":""},{"stop_id":"1018085-10","stop_code":"","stop_name":"元小路(1)","stop_desc":"","stop_lat":"33.24169","stop_lon":"130.23752","zone_id":"1018085-10","stop_url":"","location_type":"0","parent_station":"1018085","stop_timezone":"","wheelchair_boarding":""},{"stop_id":"1024167-20","stop_code":"","stop_name":"成章中学校西(2)","stop_desc":"","stop_lat":"33.25834","stop_lon":"130.29314","zone_id":"1024167-20","stop_url":"","location_type":"0","parent_station":"1024167","stop_timezone":"","wheelchair_boarding":""},{"stop_id":"1024167-10","stop_code":"","stop_name":"成章中学校西(1)","stop_desc":"","stop_lat":"33.25603","stop_lon":"130.29285","zone_id":"1024167-10","stop_url":"","location_type":"0","parent_station":"1024167","stop_timezone":"","wheelchair_boarding":""},{"stop_id":"1024168-03","stop_code":"","stop_name":"どんどんどんの森東(3)","stop_desc":"","stop_lat":"33.26151","stop_lon":"130.2939","zone_id":"1024168-03","stop_url":"","location_type":"0","parent_station":"1024168","stop_timezone":"","wheelchair_boarding":""},{"stop_id":"1024169-10","stop_code":"","stop_name":"駅南本町西(1)","stop_desc":"","stop_lat":"33.26164","stop_lon":"130.29707","zone_id":"1024169-10","stop_url":"","location_type":"0","parent_station":"1024169","stop_timezone":"","wheelchair_boarding":""},{"stop_id":"1024169-20","stop_code":"","stop_name":"駅南本町西(2)","stop_desc":"","stop_lat":"33.26157","stop_lon":"130.29732","zone_id":"1024169-20","stop_url":"","location_type":"0","parent_station":"1024169","stop_timezone":"","wheelchair_boarding":""},{"stop_id":"1024168-04","stop_code":"","stop_name":"どんどんどんの森東(4)","stop_desc":"","stop_lat":"33.26138","stop_lon":"130.29376","zone_id":"1024168-04","stop_url":"","location_type":"0","parent_station":"1024168","stop_timezone":"","wheelchair_boarding":""},{"stop_id":"1024166-20","stop_code":"","stop_name":"護国神社前(2)","stop_desc":"","stop_lat":"33.25315","stop_lon":"130.29355","zone_id":"1024166-20","stop_url":"","location_type":"0","parent_station":"1024166","stop_timezone":"","wheelchair_boarding":""},{"stop_id":"1003013-03","stop_code":"","stop_name":"辻の堂(３)","stop_desc":"","stop_lat":"33.251192","stop_lon":"130.293963","zone_id":"1003013-03","stop_url":"","location_type":"0","parent_station":"1003013","stop_timezone":"","wheelchair_boarding":""},{"stop_id":"1024165-10","stop_code":"","stop_name":"平林胃腸科前(1)","stop_desc":"","stop_lat":"33.24385","stop_lon":"130.27676","zone_id":"1024165-10","stop_url":"","location_type":"0","parent_station":"1024165","stop_timezone":"","wheelchair_boarding":""},{"stop_id":"1024164-10","stop_code":"","stop_name":"平松老人センター前(1)","stop_desc":"","stop_lat":"33.24168","stop_lon":"130.27802","zone_id":"1024164-10","stop_url":"","location_type":"0","parent_station":"1024164","stop_timezone":"","wheelchair_boarding":""},{"stop_id":"1024163-10","stop_code":"","stop_name":"平松交差点東(1)","stop_desc":"","stop_lat":"33.24013","stop_lon":"130.28218","zone_id":"1024163-10","stop_url":"","location_type":"0","parent_station":"1024163","stop_timezone":"","wheelchair_boarding":""},{"stop_id":"1024162-10","stop_code":"","stop_name":"高伝寺前(1)","stop_desc":"","stop_lat":"33.23997","stop_lon":"130.28476","zone_id":"1024162-10","stop_url":"","location_type":"0","parent_station":"1024162","stop_timezone":"","wheelchair_boarding":""},{"stop_id":"1024161-10","stop_code":"","stop_name":"佐賀大学南(1)","stop_desc":"","stop_lat":"33.23956","stop_lon":"130.29269","zone_id":"1024161-10","stop_url":"","location_type":"0","parent_station":"1024161","stop_timezone":"","wheelchair_boarding":""},{"stop_id":"1024160-10","stop_code":"","stop_name":"大井樋(1)","stop_desc":"","stop_lat":"33.23928","stop_lon":"130.29607","zone_id":"1024160-10","stop_url":"","location_type":"0","parent_station":"1024160","stop_timezone":"","wheelchair_boarding":""},{"stop_id":"1024159-10","stop_code":"","stop_name":"鬼丸(1)","stop_desc":"","stop_lat":"33.23986","stop_lon":"130.30209","zone_id":"1024159-10","stop_url":"","location_type":"0","parent_station":"1024159","stop_timezone":"","wheelchair_boarding":""},{"stop_id":"1024158-10","stop_code":"","stop_name":"中の館(1)","stop_desc":"","stop_lat":"33.24218","stop_lon":"130.302","zone_id":"1024158-10","stop_url":"","location_type":"0","parent_station":"1024158","stop_timezone":"","wheelchair_boarding":""},{"stop_id":"1024157-10","stop_code":"","stop_name":"赤松小学校前(1)","stop_desc":"","stop_lat":"33.24397","stop_lon":"130.3017","zone_id":"1024157-10","stop_url":"","location_type":"0","parent_station":"1024157","stop_timezone":"","wheelchair_boarding":""},{"stop_id":"1024157-20","stop_code":"","stop_name":"赤松小学校前(2)","stop_desc":"","stop_lat":"33.24311","stop_lon":"130.30197","zone_id":"1024157-20","stop_url":"","location_type":"0","parent_station":"1024157","stop_timezone":"","wheelchair_boarding":""},{"stop_id":"1024158-20","stop_code":"","stop_name":"中の館(2)","stop_desc":"","stop_lat":"33.24207","stop_lon":"130.30209","zone_id":"1024158-20","stop_url":"","location_type":"0","parent_station":"1024158","stop_timezone":"","wheelchair_boarding":""},{"stop_id":"1024159-20","stop_code":"","stop_name":"鬼丸(2)","stop_desc":"","stop_lat":"33.24008","stop_lon":"130.30219","zone_id":"1024159-20","stop_url":"","location_type":"0","parent_station":"1024159","stop_timezone":"","wheelchair_boarding":""},{"stop_id":"1025171-00","stop_code":"","stop_name":"末次","stop_desc":"","stop_lat":"33.2343","stop_lon":"130.30161","zone_id":"1025171-00","stop_url":"","location_type":"0","parent_station":"1025171","stop_timezone":"","wheelchair_boarding":""},{"stop_id":"1025172-20","stop_code":"","stop_name":"末次南(2)","stop_desc":"","stop_lat":"33.23069","stop_lon":"130.30188","zone_id":"1025172-20","stop_url":"","location_type":"0","parent_station":"1025172","stop_timezone":"","wheelchair_boarding":""},{"stop_id":"1025173-00","stop_code":"","stop_name":"満穴","stop_desc":"","stop_lat":"33.22713","stop_lon":"130.302088","zone_id":"1025173-00","stop_url":"","location_type":"0","parent_station":"1025173","stop_timezone":"","wheelchair_boarding":""},{"stop_id":"1025174-00","stop_code":"","stop_name":"中島","stop_desc":"","stop_lat":"33.22463","stop_lon":"130.30246","zone_id":"1025174-00","stop_url":"","location_type":"0","parent_station":"1025174","stop_timezone":"","wheelchair_boarding":""},{"stop_id":"1025175-00","stop_code":"","stop_name":"立野北","stop_desc":"","stop_lat":"33.22261","stop_lon":"130.30214","zone_id":"1025175-00","stop_url":"","location_type":"0","parent_station":"1025175","stop_timezone":"","wheelchair_boarding":""},{"stop_id":"1025176-00","stop_code":"","stop_name":"立野","stop_desc":"","stop_lat":"33.22041","stop_lon":"130.30194","zone_id":"1025176-00","stop_url":"","location_type":"0","parent_station":"1025176","stop_timezone":"","wheelchair_boarding":""},{"stop_id":"1025177-00","stop_code":"","stop_name":"西船津","stop_desc":"","stop_lat":"33.21111","stop_lon":"130.30115","zone_id":"1025177-00","stop_url":"","location_type":"0","parent_station":"1025177","stop_timezone":"","wheelchair_boarding":""},{"stop_id":"1025178-00","stop_code":"","stop_name":"佐房","stop_desc":"","stop_lat":"33.20796","stop_lon":"130.29932","zone_id":"1025178-00","stop_url":"","location_type":"0","parent_station":"1025178","stop_timezone":"","wheelchair_boarding":""},{"stop_id":"1025179-00","stop_code":"","stop_name":"新村","stop_desc":"","stop_lat":"33.20406","stop_lon":"130.29813","zone_id":"1025179-00","stop_url":"","location_type":"0","parent_station":"1025179","stop_timezone":"","wheelchair_boarding":""},{"stop_id":"1025180-00","stop_code":"","stop_name":"久町","stop_desc":"","stop_lat":"33.19907","stop_lon":"130.29802","zone_id":"1025180-00","stop_url":"","location_type":"0","parent_station":"1025180","stop_timezone":"","wheelchair_boarding":""},{"stop_id":"1025181-00","stop_code":"","stop_name":"広江(1)","stop_desc":"","stop_lat":"33.19752","stop_lon":"130.29768","zone_id":"1025181-00","stop_url":"","location_type":"0","parent_station":"1025181","stop_timezone":"","wheelchair_boarding":""},{"stop_id":"1025182-20","stop_code":"","stop_name":"小々森(2)","stop_desc":"","stop_lat":"33.19707","stop_lon":"130.30527","zone_id":"1025182-20","stop_url":"","location_type":"0","parent_station":"1025182","stop_timezone":"","wheelchair_boarding":""},{"stop_id":"1025183-00","stop_code":"","stop_name":"南部消防署前","stop_desc":"","stop_lat":"33.19746","stop_lon":"130.31117","zone_id":"1025183-00","stop_url":"","location_type":"0","parent_station":"1025183","stop_timezone":"","wheelchair_boarding":""},{"stop_id":"1023146-20","stop_code":"","stop_name":"小々森入口(2)","stop_desc":"","stop_lat":"33.19677","stop_lon":"130.31479","zone_id":"1023146-20","stop_url":"","location_type":"0","parent_station":"1023146","stop_timezone":"","wheelchair_boarding":""},{"stop_id":"1023147-20","stop_code":"","stop_name":"鹿江団地東(2)","stop_desc":"","stop_lat":"33.19364","stop_lon":"130.31528","zone_id":"1023147-20","stop_url":"","location_type":"0","parent_station":"1023147","stop_timezone":"","wheelchair_boarding":""},{"stop_id":"1023148-20","stop_code":"","stop_name":"咾分(2)","stop_desc":"","stop_lat":"33.19181","stop_lon":"130.31648","zone_id":"1023148-20","stop_url":"","location_type":"0","parent_station":"1023148","stop_timezone":"","wheelchair_boarding":""},{"stop_id":"1023149-20","stop_code":"","stop_name":"川副支所前(2)","stop_desc":"","stop_lat":"33.19159","stop_lon":"130.31924","zone_id":"1023149-20","stop_url":"","location_type":"0","parent_station":"1023149","stop_timezone":"","wheelchair_boarding":""},{"stop_id":"1023150-20","stop_code":"","stop_name":"犬井道(2)","stop_desc":"","stop_lat":"33.18955","stop_lon":"130.32022","zone_id":"1023150-20","stop_url":"","location_type":"0","parent_station":"1023150","stop_timezone":"","wheelchair_boarding":""},{"stop_id":"1023151-20","stop_code":"","stop_name":"平田分(2)","stop_desc":"","stop_lat":"33.18934","stop_lon":"130.32281","zone_id":"1023151-20","stop_url":"","location_type":"0","parent_station":"1023151","stop_timezone":"","wheelchair_boarding":""},{"stop_id":"1023152-10","stop_code":"","stop_name":"和崎(1)","stop_desc":"","stop_lat":"33.19007","stop_lon":"130.32912","zone_id":"1023152-10","stop_url":"","location_type":"0","parent_station":"1023152","stop_timezone":"","wheelchair_boarding":""},{"stop_id":"1023151-10","stop_code":"","stop_name":"平田分(1)","stop_desc":"","stop_lat":"33.18931","stop_lon":"130.32361","zone_id":"1023151-10","stop_url":"","location_type":"0","parent_station":"1023151","stop_timezone":"","wheelchair_boarding":""},{"stop_id":"1023150-10","stop_code":"","stop_name":"犬井道(1)","stop_desc":"","stop_lat":"33.19018","stop_lon":"130.31938","zone_id":"1023150-10","stop_url":"","location_type":"0","parent_station":"1023150","stop_timezone":"","wheelchair_boarding":""},{"stop_id":"1023149-10","stop_code":"","stop_name":"川副支所前(1)","stop_desc":"","stop_lat":"33.19149","stop_lon":"130.31918","zone_id":"1023149-10","stop_url":"","location_type":"0","parent_station":"1023149","stop_timezone":"","wheelchair_boarding":""},{"stop_id":"1023148-10","stop_code":"","stop_name":"咾分(1)","stop_desc":"","stop_lat":"33.19175","stop_lon":"130.31609","zone_id":"1023148-10","stop_url":"","location_type":"0","parent_station":"1023148","stop_timezone":"","wheelchair_boarding":""},{"stop_id":"1023147-10","stop_code":"","stop_name":"鹿江団地東(1)","stop_desc":"","stop_lat":"33.19365","stop_lon":"130.31517","zone_id":"1023147-10","stop_url":"","location_type":"0","parent_station":"1023147","stop_timezone":"","wheelchair_boarding":""},{"stop_id":"1023146-10","stop_code":"","stop_name":"小々森入口(1)","stop_desc":"","stop_lat":"33.19642","stop_lon":"130.31476","zone_id":"1023146-10","stop_url":"","location_type":"0","parent_station":"1023146","stop_timezone":"","wheelchair_boarding":""},{"stop_id":"1025182-10","stop_code":"","stop_name":"小々森(1)","stop_desc":"","stop_lat":"33.19682","stop_lon":"130.30466","zone_id":"1025182-10","stop_url":"","location_type":"0","parent_station":"1025182","stop_timezone":"","wheelchair_boarding":""},